{"type":"FeatureCollection","name":"CHGIS_V6_Northern_Song_county_points","description":"北宋时期 (960-1127) county_points数据，提取自 CHGIS V6 Time Series","source":"CHGIS V6, Harvard University & Fudan University","time_range":{"start":960,"end":1127},"features":[{"type":"Feature","properties":{"NAME_PY":"Huoshan Xian","NAME_CH":"火山县","NAME_FT":"火山縣","X_COOR":111.219826,"Y_COOR":39.169819,"PRES_LOC":"山西河曲县旧县镇","TYPE_PY":"Xian","TYPE_CH":"县","LEV_RANK":"6","BEG_YR":1067,"BEG_RULE":"4","END_YR":1070,"END_RULE":"4","NOTE_ID":95009,"OBJ_TYPE":"POINT","SYS_ID":95009,"GEO_SRC":"FROM_AC","COMPILER":null,"GECOMPLR":null,"CHECKER":null,"ENT_DATE":null,"BEG_CHG_TY":"新建","END_CHG_TY":"撤消"},"geometry":{"type":"Point","coordinates":[111.219826,39.169819]}},{"type":"Feature","properties":{"NAME_PY":"Datong Xian","NAME_CH":"大同县","NAME_FT":"大同縣","X_COOR":113.296387,"Y_COOR":40.092838,"PRES_LOC":"今山西大同市","TYPE_PY":"Xian","TYPE_CH":"县","LEV_RANK":"6","BEG_YR":1045,"BEG_RULE":"4","END_YR":1911,"END_RULE":"6","NOTE_ID":95011,"OBJ_TYPE":"POINT","SYS_ID":95011,"GEO_SRC":"FROM_AC","COMPILER":null,"GECOMPLR":null,"CHECKER":null,"ENT_DATE":null,"BEG_CHG_TY":"新建","END_CHG_TY":"数据下限"},"geometry":{"type":"Point","coordinates":[113.296387,40.092838]}},{"type":"Feature","properties":{"NAME_PY":"Xuande Xian","NAME_CH":"宣德县","NAME_FT":"宣德縣","X_COOR":113.111343,"Y_COOR":40.371845,"PRES_LOC":"今山西大同市新荣区拒墙堡乡三墙堡西侧","TYPE_PY":"Xian","TYPE_CH":"县","LEV_RANK":"6","BEG_YR":1019,"BEG_RULE":"4","END_YR":1167,"END_RULE":"4","NOTE_ID":95022,"OBJ_TYPE":"POINT","SYS_ID":95022,"GEO_SRC":"FROM_FD","COMPILER":null,"GECOMPLR":null,"CHECKER":null,"ENT_DATE":null,"BEG_CHG_TY":"新建","END_CHG_TY":"更名"},"geometry":{"type":"Point","coordinates":[113.111343,40.371845]}},{"type":"Feature","properties":{"NAME_PY":"Yunzhong Xian","NAME_CH":"云中县","NAME_FT":"雲中縣","X_COOR":113.296387,"Y_COOR":40.092838,"PRES_LOC":"今山西大同市","TYPE_PY":"Xian","TYPE_CH":"县","LEV_RANK":"6","BEG_YR":732,"BEG_RULE":"4","END_YR":1264,"END_RULE":"4","NOTE_ID":95024,"OBJ_TYPE":"POINT","SYS_ID":95024,"GEO_SRC":"FROM_AC","COMPILER":null,"GECOMPLR":null,"CHECKER":null,"ENT_DATE":null,"BEG_CHG_TY":"更名","END_CHG_TY":"撤销"},"geometry":{"type":"Point","coordinates":[113.296387,40.092838]}},{"type":"Feature","properties":{"NAME_PY":"Guangling Xian","NAME_CH":"广灵县","NAME_FT":"廣靈縣","X_COOR":114.276054,"Y_COOR":39.763554,"PRES_LOC":"今山西广灵县城","TYPE_PY":"Xian","TYPE_CH":"县","LEV_RANK":"6","BEG_YR":1125,"BEG_RULE":"4","END_YR":1911,"END_RULE":"4","NOTE_ID":95027,"OBJ_TYPE":"POINT","SYS_ID":95027,"GEO_SRC":"FROM_AC","COMPILER":null,"GECOMPLR":null,"CHECKER":null,"ENT_DATE":null,"BEG_CHG_TY":"更名","END_CHG_TY":"数据下限"},"geometry":{"type":"Point","coordinates":[114.276054,39.763554]}},{"type":"Feature","properties":{"NAME_PY":"Guangling Xian","NAME_CH":"广陵县","NAME_FT":"廣陵縣","X_COOR":114.276054,"Y_COOR":39.763554,"PRES_LOC":"今山西广灵县城","TYPE_PY":"Xian","TYPE_CH":"县","LEV_RANK":"6","BEG_YR":924,"BEG_RULE":"4","END_YR":1124,"END_RULE":"4","NOTE_ID":95028,"OBJ_TYPE":"POINT","SYS_ID":95028,"GEO_SRC":"FROM_AC","COMPILER":null,"GECOMPLR":null,"CHECKER":null,"ENT_DATE":null,"BEG_CHG_TY":"新建","END_CHG_TY":"更名"},"geometry":{"type":"Point","coordinates":[114.276054,39.763554]}},{"type":"Feature","properties":{"NAME_PY":"Huairen Xian","NAME_CH":"怀仁县","NAME_FT":"懷仁縣","X_COOR":113.103211,"Y_COOR":39.820141,"PRES_LOC":"今山西怀仁县城","TYPE_PY":"Xian","TYPE_CH":"县","LEV_RANK":"6","BEG_YR":936,"BEG_RULE":"4","END_YR":1213,"END_RULE":"4","NOTE_ID":95036,"OBJ_TYPE":"POINT","SYS_ID":95036,"GEO_SRC":"FROM_AC","COMPILER":null,"GECOMPLR":null,"CHECKER":null,"ENT_DATE":null,"BEG_CHG_TY":"新建","END_CHG_TY":"更名"},"geometry":{"type":"Point","coordinates":[113.103211,39.820141]}},{"type":"Feature","properties":{"NAME_PY":"Hunyuan Xian","NAME_CH":"浑源县","NAME_FT":"渾源縣","X_COOR":113.684898,"Y_COOR":39.696335,"PRES_LOC":"今山西大同市浑源县城","TYPE_PY":"Xian","TYPE_CH":"县","LEV_RANK":"6","BEG_YR":937,"BEG_RULE":"4","END_YR":1246,"END_RULE":"4","NOTE_ID":95045,"OBJ_TYPE":"POINT","SYS_ID":95045,"GEO_SRC":"FROM_AC","COMPILER":null,"GECOMPLR":null,"CHECKER":null,"ENT_DATE":null,"BEG_CHG_TY":"更名","END_CHG_TY":"更名"},"geometry":{"type":"Point","coordinates":[113.684898,39.696335]}},{"type":"Feature","properties":{"NAME_PY":"Lingqiu Xian","NAME_CH":"灵丘县","NAME_FT":"靈丘縣","X_COOR":114.229218,"Y_COOR":39.437744,"PRES_LOC":"今山西大同市灵丘县城","TYPE_PY":"Xian","TYPE_CH":"县","LEV_RANK":"6","BEG_YR":632,"BEG_RULE":"4","END_YR":1213,"END_RULE":"4","NOTE_ID":95052,"OBJ_TYPE":"POINT","SYS_ID":95052,"GEO_SRC":"FROM_AC","COMPILER":null,"GECOMPLR":null,"CHECKER":null,"ENT_DATE":null,"BEG_CHG_TY":"新建","END_CHG_TY":"更名"},"geometry":{"type":"Point","coordinates":[114.229218,39.437744]}},{"type":"Feature","properties":{"NAME_PY":"Heyin Xian","NAME_CH":"河阴县","NAME_FT":"河陰縣","X_COOR":112.942734,"Y_COOR":39.440437,"PRES_LOC":"今山西朔州市山阴县山阴城镇","TYPE_PY":"Xian","TYPE_CH":"县","LEV_RANK":"6","BEG_YR":937,"BEG_RULE":"4","END_YR":1166,"END_RULE":"4","NOTE_ID":95057,"OBJ_TYPE":"POINT","SYS_ID":95057,"GEO_SRC":"FROM_AC","COMPILER":null,"GECOMPLR":null,"CHECKER":null,"ENT_DATE":null,"BEG_CHG_TY":"新建","END_CHG_TY":"更名"},"geometry":{"type":"Point","coordinates":[112.942734,39.440437]}},{"type":"Feature","properties":{"NAME_PY":"Tiancheng Xian","NAME_CH":"天成县","NAME_FT":"天成縣","X_COOR":114.082047,"Y_COOR":40.415791,"PRES_LOC":"今山西天镇县城","TYPE_PY":"Xian","TYPE_CH":"县","LEV_RANK":"6","BEG_YR":1044,"BEG_RULE":"4","END_YR":1370,"END_RULE":"4","NOTE_ID":95063,"OBJ_TYPE":"POINT","SYS_ID":95063,"GEO_SRC":"FROM_AC","COMPILER":null,"GECOMPLR":null,"CHECKER":null,"ENT_DATE":null,"BEG_CHG_TY":"新建","END_CHG_TY":"撤销"},"geometry":{"type":"Point","coordinates":[114.082047,40.415791]}},{"type":"Feature","properties":{"NAME_PY":"Changqing Xian","NAME_CH":"长青县","NAME_FT":"長青縣","X_COOR":113.818184,"Y_COOR":40.286655,"PRES_LOC":"今山西阳高县大白登村","TYPE_PY":"Xian","TYPE_CH":"县","LEV_RANK":"6","BEG_YR":936,"BEG_RULE":"4","END_YR":1166,"END_RULE":"4","NOTE_ID":95080,"OBJ_TYPE":"POINT","SYS_ID":95080,"GEO_SRC":"FROM_AC","COMPILER":null,"GECOMPLR":null,"CHECKER":null,"ENT_DATE":null,"BEG_CHG_TY":"新建","END_CHG_TY":"更名"},"geometry":{"type":"Point","coordinates":[113.818184,40.286655]}},{"type":"Feature","properties":{"NAME_PY":"Jincheng Xian","NAME_CH":"金城县","NAME_FT":"金城縣","X_COOR":113.182381,"Y_COOR":39.560173,"PRES_LOC":"今山西应县县城","TYPE_PY":"Xian","TYPE_CH":"县","LEV_RANK":"6","BEG_YR":878,"BEG_RULE":"4","END_YR":1367,"END_RULE":"4","NOTE_ID":95089,"OBJ_TYPE":"POINT","SYS_ID":95089,"GEO_SRC":"FROM_AC","COMPILER":null,"GECOMPLR":null,"CHECKER":null,"ENT_DATE":null,"BEG_CHG_TY":"治所迁移","END_CHG_TY":"撤销"},"geometry":{"type":"Point","coordinates":[113.182381,39.560173]}},{"type":"Feature","properties":{"NAME_PY":"Yanmen Xian","NAME_CH":"雁门县","NAME_FT":"雁門縣","X_COOR":112.949043,"Y_COOR":39.060391,"PRES_LOC":"今山西代县县城","TYPE_PY":"Xian","TYPE_CH":"县","LEV_RANK":"6","BEG_YR":598,"BEG_RULE":"4","END_YR":1263,"END_RULE":"4","NOTE_ID":0,"OBJ_TYPE":"POINT","SYS_ID":200002,"GEO_SRC":"FROM_AC","COMPILER":null,"GECOMPLR":null,"CHECKER":null,"ENT_DATE":null,"BEG_CHG_TY":"更名","END_CHG_TY":"更名"},"geometry":{"type":"Point","coordinates":[112.949043,39.060391]}},{"type":"Feature","properties":{"NAME_PY":"Fanzhi Xian","NAME_CH":"繁畤县","NAME_FT":"繁畤縣","X_COOR":113.285355,"Y_COOR":39.176876,"PRES_LOC":"今山西繁峙县杏园乡南关村","TYPE_PY":"Xian","TYPE_CH":"县","LEV_RANK":"6","BEG_YR":699,"BEG_RULE":"4","END_YR":1214,"END_RULE":"4","NOTE_ID":95109,"OBJ_TYPE":"POINT","SYS_ID":95109,"GEO_SRC":"FROM_FD","COMPILER":null,"GECOMPLR":null,"CHECKER":null,"ENT_DATE":null,"BEG_CHG_TY":"治所迁移","END_CHG_TY":"更名"},"geometry":{"type":"Point","coordinates":[113.285355,39.176876]}},{"type":"Feature","properties":{"NAME_PY":"Guo Xian","NAME_CH":"崞县","NAME_FT":"崞縣","X_COOR":112.751518,"Y_COOR":38.88332,"PRES_LOC":"今山西原平市崞阳镇","TYPE_PY":"Xian","TYPE_CH":"县","LEV_RANK":"6","BEG_YR":606,"BEG_RULE":"4","END_YR":1218,"END_RULE":"4","NOTE_ID":95115,"OBJ_TYPE":"POINT","SYS_ID":95115,"GEO_SRC":"FROM_AC","COMPILER":null,"GECOMPLR":null,"CHECKER":null,"ENT_DATE":null,"BEG_CHG_TY":"更名","END_CHG_TY":"更名"},"geometry":{"type":"Point","coordinates":[112.751518,38.88332]}},{"type":"Feature","properties":{"NAME_PY":"Tanglin Xian","NAME_CH":"唐林县","NAME_FT":"唐林縣","X_COOR":112.727215,"Y_COOR":38.628651,"PRES_LOC":"今山西原平市唐林冈村","TYPE_PY":"Xian","TYPE_CH":"县","LEV_RANK":"6","BEG_YR":948,"BEG_RULE":"4","END_YR":1004,"END_RULE":"4","NOTE_ID":95124,"OBJ_TYPE":"POINT","SYS_ID":95124,"GEO_SRC":"FROM_FD","COMPILER":null,"GECOMPLR":null,"CHECKER":null,"ENT_DATE":null,"BEG_CHG_TY":"更名","END_CHG_TY":"撤销"},"geometry":{"type":"Point","coordinates":[112.727215,38.628651]}},{"type":"Feature","properties":{"NAME_PY":"Wutai Xian","NAME_CH":"五台县","NAME_FT":"五臺縣","X_COOR":113.259209,"Y_COOR":38.719177,"PRES_LOC":"今山西五台县城","TYPE_PY":"Xian","TYPE_CH":"县","LEV_RANK":"6","BEG_YR":606,"BEG_RULE":"4","END_YR":1216,"END_RULE":"4","NOTE_ID":95131,"OBJ_TYPE":"POINT","SYS_ID":95131,"GEO_SRC":"FROM_AC","COMPILER":null,"GECOMPLR":null,"CHECKER":null,"ENT_DATE":null,"BEG_CHG_TY":"更名","END_CHG_TY":"更名"},"geometry":{"type":"Point","coordinates":[113.259209,38.719177]}},{"type":"Feature","properties":{"NAME_PY":"Xihe Xian","NAME_CH":"西河县","NAME_FT":"西河縣","X_COOR":111.77903,"Y_COOR":37.263405,"PRES_LOC":"今山西汾阳市","TYPE_PY":"Xian","TYPE_CH":"县","LEV_RANK":"6","BEG_YR":760,"BEG_RULE":"4","END_YR":1368,"END_RULE":"4","NOTE_ID":95141,"OBJ_TYPE":"POINT","SYS_ID":95141,"GEO_SRC":"FROM_AC","COMPILER":null,"GECOMPLR":null,"CHECKER":null,"ENT_DATE":null,"BEG_CHG_TY":"更名","END_CHG_TY":"撤销"},"geometry":{"type":"Point","coordinates":[111.77903,37.263405]}},{"type":"Feature","properties":{"NAME_PY":"Jiexiu Xian","NAME_CH":"介休县","NAME_FT":"介休縣","X_COOR":111.912163,"Y_COOR":37.026474,"PRES_LOC":"今山西介休市区","TYPE_PY":"Xian","TYPE_CH":"县","LEV_RANK":"6","BEG_YR":598,"BEG_RULE":"4","END_YR":1911,"END_RULE":"4","NOTE_ID":95148,"OBJ_TYPE":"POINT","SYS_ID":95148,"GEO_SRC":"FROM_AC","COMPILER":null,"GECOMPLR":null,"CHECKER":null,"ENT_DATE":null,"BEG_CHG_TY":"更名","END_CHG_TY":"数据下限"},"geometry":{"type":"Point","coordinates":[111.912163,37.026474]}},{"type":"Feature","properties":{"NAME_PY":"Linquan Xian","NAME_CH":"临泉县","NAME_FT":"臨泉縣","X_COOR":111.052345,"Y_COOR":38.147018,"PRES_LOC":"今山西临县北故县村","TYPE_PY":"Xian","TYPE_CH":"县","LEV_RANK":"6","BEG_YR":620,"BEG_RULE":"4","END_YR":1122,"END_RULE":"4","NOTE_ID":95156,"OBJ_TYPE":"POINT","SYS_ID":95156,"GEO_SRC":"FROM_FD","COMPILER":null,"GECOMPLR":null,"CHECKER":null,"ENT_DATE":null,"BEG_CHG_TY":"更名","END_CHG_TY":"更名"},"geometry":{"type":"Point","coordinates":[111.052345,38.147018]}},{"type":"Feature","properties":{"NAME_PY":"Linshui Xian","NAME_CH":"临水县","NAME_FT":"臨水縣","X_COOR":111.052345,"Y_COOR":38.147018,"PRES_LOC":"今山西临县北故县村","TYPE_PY":"Xian","TYPE_CH":"县","LEV_RANK":"6","BEG_YR":1123,"BEG_RULE":"4","END_YR":1260,"END_RULE":"4","NOTE_ID":95157,"OBJ_TYPE":"POINT","SYS_ID":95157,"GEO_SRC":"FROM_FD","COMPILER":null,"GECOMPLR":null,"CHECKER":null,"ENT_DATE":null,"BEG_CHG_TY":"更名","END_CHG_TY":"更名"},"geometry":{"type":"Point","coordinates":[111.052345,38.147018]}},{"type":"Feature","properties":{"NAME_PY":"Pingyi Xian","NAME_CH":"平夷县","NAME_FT":"平夷縣","X_COOR":111.188125,"Y_COOR":37.339596,"PRES_LOC":"今山西中阳县","TYPE_PY":"Xian","TYPE_CH":"县","LEV_RANK":"6","BEG_YR":579,"BEG_RULE":"4","END_YR":1194,"END_RULE":"4","NOTE_ID":95164,"OBJ_TYPE":"POINT","SYS_ID":95164,"GEO_SRC":"FROM_AC","COMPILER":null,"GECOMPLR":null,"CHECKER":null,"ENT_DATE":null,"BEG_CHG_TY":"新建","END_CHG_TY":"更名"},"geometry":{"type":"Point","coordinates":[111.188125,37.339596]}},{"type":"Feature","properties":{"NAME_PY":"Pingyao Xian","NAME_CH":"平遥县","NAME_FT":"平遙縣","X_COOR":112.177597,"Y_COOR":37.20726,"PRES_LOC":"今山西平遥县城","TYPE_PY":"Xian","TYPE_CH":"县","LEV_RANK":"6","BEG_YR":448,"BEG_RULE":"4","END_YR":1911,"END_RULE":"4","NOTE_ID":95174,"OBJ_TYPE":"POINT","SYS_ID":95174,"GEO_SRC":"FROM_AC","COMPILER":null,"GECOMPLR":null,"CHECKER":null,"ENT_DATE":null,"BEG_CHG_TY":"更名和治所迁移","END_CHG_TY":"数据下限"},"geometry":{"type":"Point","coordinates":[112.177597,37.20726]}},{"type":"Feature","properties":{"NAME_PY":"Wenquan Xian","NAME_CH":"温泉县","NAME_FT":"溫泉縣","X_COOR":111.453293,"Y_COOR":37.058769,"PRES_LOC":"今山西交口县东北25公里温泉乡","TYPE_PY":"Xian","TYPE_CH":"县","LEV_RANK":"6","BEG_YR":620,"BEG_RULE":"4","END_YR":1265,"END_RULE":"4","NOTE_ID":95178,"OBJ_TYPE":"POINT","SYS_ID":95178,"GEO_SRC":"FROM_FD","COMPILER":null,"GECOMPLR":null,"CHECKER":null,"ENT_DATE":null,"BEG_CHG_TY":"新建","END_CHG_TY":"撤销"},"geometry":{"type":"Point","coordinates":[111.453293,37.058769]}},{"type":"Feature","properties":{"NAME_PY":"Shilou Xian","NAME_CH":"石楼县","NAME_FT":"石樓縣","X_COOR":110.826668,"Y_COOR":36.995705,"PRES_LOC":"今山西石楼县","TYPE_PY":"Xian","TYPE_CH":"县","LEV_RANK":"6","BEG_YR":598,"BEG_RULE":"4","END_YR":1911,"END_RULE":"6","NOTE_ID":95181,"OBJ_TYPE":"POINT","SYS_ID":95181,"GEO_SRC":"FROM_AC","COMPILER":null,"GECOMPLR":null,"CHECKER":null,"ENT_DATE":null,"BEG_CHG_TY":"更名","END_CHG_TY":"数据下限"},"geometry":{"type":"Point","coordinates":[110.826668,36.995705]}},{"type":"Feature","properties":{"NAME_PY":"Xiaoyi Xian","NAME_CH":"孝义县","NAME_FT":"孝義縣","X_COOR":111.782768,"Y_COOR":37.143234,"PRES_LOC":"今山西孝义市城关镇","TYPE_PY":"Xian","TYPE_CH":"县","LEV_RANK":"6","BEG_YR":627,"BEG_RULE":"4","END_YR":975,"END_RULE":"4","NOTE_ID":95186,"OBJ_TYPE":"POINT","SYS_ID":95186,"GEO_SRC":"FROM_AC","COMPILER":null,"GECOMPLR":null,"CHECKER":null,"ENT_DATE":null,"BEG_CHG_TY":"更名","END_CHG_TY":"更名"},"geometry":{"type":"Point","coordinates":[111.782768,37.143234]}},{"type":"Feature","properties":{"NAME_PY":"Zhongyang Xian","NAME_CH":"中阳县","NAME_FT":"中陽縣","X_COOR":111.782768,"Y_COOR":37.143234,"PRES_LOC":"今山西孝义市城关镇","TYPE_PY":"Xian","TYPE_CH":"县","LEV_RANK":"6","BEG_YR":976,"BEG_RULE":"4","END_YR":976,"END_RULE":null,"NOTE_ID":0,"OBJ_TYPE":"POINT","SYS_ID":200004,"GEO_SRC":"FROM_AC","COMPILER":null,"GECOMPLR":null,"CHECKER":null,"ENT_DATE":null,"BEG_CHG_TY":"更名","END_CHG_TY":"更名"},"geometry":{"type":"Point","coordinates":[111.782768,37.143234]}},{"type":"Feature","properties":{"NAME_PY":"Xiaoyi Xian","NAME_CH":"孝义县","NAME_FT":"孝義縣","X_COOR":111.782768,"Y_COOR":37.143234,"PRES_LOC":"今山西孝义市城关镇","TYPE_PY":"Xian","TYPE_CH":"县","LEV_RANK":"6","BEG_YR":977,"BEG_RULE":"4","END_YR":1071,"END_RULE":"4","NOTE_ID":95188,"OBJ_TYPE":"POINT","SYS_ID":95188,"GEO_SRC":"FROM_AC","COMPILER":null,"GECOMPLR":null,"CHECKER":null,"ENT_DATE":null,"BEG_CHG_TY":"更名","END_CHG_TY":"撤销"},"geometry":{"type":"Point","coordinates":[111.782768,37.143234]}},{"type":"Feature","properties":{"NAME_PY":"Xiaoyi Xian","NAME_CH":"孝义县","NAME_FT":"孝義縣","X_COOR":111.782768,"Y_COOR":37.143234,"PRES_LOC":"今山西孝义市城关镇","TYPE_PY":"Xian","TYPE_CH":"县","LEV_RANK":"6","BEG_YR":1086,"BEG_RULE":"4","END_YR":1911,"END_RULE":"4","NOTE_ID":95190,"OBJ_TYPE":"POINT","SYS_ID":95190,"GEO_SRC":"FROM_AC","COMPILER":null,"GECOMPLR":null,"CHECKER":null,"ENT_DATE":null,"BEG_CHG_TY":"新建","END_CHG_TY":"数据下限"},"geometry":{"type":"Point","coordinates":[111.782768,37.143234]}},{"type":"Feature","properties":{"NAME_PY":"Lishi Xian","NAME_CH":"离石县","NAME_FT":"離石縣","X_COOR":111.135178,"Y_COOR":37.510105,"PRES_LOC":"今山西离石县","TYPE_PY":"Xian","TYPE_CH":"县","LEV_RANK":"6","BEG_YR":557,"BEG_RULE":"4","END_YR":1260,"END_RULE":"4","NOTE_ID":95195,"OBJ_TYPE":"POINT","SYS_ID":95195,"GEO_SRC":"FROM_AC","COMPILER":null,"GECOMPLR":null,"CHECKER":null,"ENT_DATE":null,"BEG_CHG_TY":"更名","END_CHG_TY":"撤销"},"geometry":{"type":"Point","coordinates":[111.135178,37.510105]}},{"type":"Feature","properties":{"NAME_PY":"Dinghu Xian","NAME_CH":"定胡县","NAME_FT":"定胡縣","X_COOR":110.80104,"Y_COOR":37.551552,"PRES_LOC":"今山西柳林县西北孟门镇","TYPE_PY":"Xian","TYPE_CH":"县","LEV_RANK":"6","BEG_YR":634,"BEG_RULE":"4","END_YR":1194,"END_RULE":"4","NOTE_ID":95207,"OBJ_TYPE":"POINT","SYS_ID":95207,"GEO_SRC":"FROM_AC","COMPILER":null,"GECOMPLR":null,"CHECKER":null,"ENT_DATE":null,"BEG_CHG_TY":"新建","END_CHG_TY":"更名"},"geometry":{"type":"Point","coordinates":[110.80104,37.551552]}},{"type":"Feature","properties":{"NAME_PY":"Fangshan Xian","NAME_CH":"方山县","NAME_FT":"方山縣","X_COOR":111.277803,"Y_COOR":37.958623,"PRES_LOC":"今山西方山县西南古贤村","TYPE_PY":"Xian","TYPE_CH":"县","LEV_RANK":"6","BEG_YR":637,"BEG_RULE":"4","END_YR":1215,"END_RULE":"4","NOTE_ID":95212,"OBJ_TYPE":"POINT","SYS_ID":95212,"GEO_SRC":"FROM_FD","COMPILER":null,"GECOMPLR":null,"CHECKER":null,"ENT_DATE":null,"BEG_CHG_TY":"治所迁移","END_CHG_TY":"治所迁移"},"geometry":{"type":"Point","coordinates":[111.277803,37.958623]}},{"type":"Feature","properties":{"NAME_PY":"Huoyi Xian","NAME_CH":"霍邑县","NAME_FT":"霍邑縣","X_COOR":111.728081,"Y_COOR":36.563824,"PRES_LOC":"今山西霍州市","TYPE_PY":"Xian","TYPE_CH":"县","LEV_RANK":"6","BEG_YR":598,"BEG_RULE":"4","END_YR":1367,"END_RULE":"4","NOTE_ID":95220,"OBJ_TYPE":"POINT","SYS_ID":95220,"GEO_SRC":"FROM_AC","COMPILER":null,"GECOMPLR":null,"CHECKER":null,"ENT_DATE":null,"BEG_CHG_TY":"更名","END_CHG_TY":"撤销"},"geometry":{"type":"Point","coordinates":[111.728081,36.563824]}},{"type":"Feature","properties":{"NAME_PY":"Lingshi Xian","NAME_CH":"灵石县","NAME_FT":"靈石縣","X_COOR":111.776215,"Y_COOR":36.842152,"PRES_LOC":"今山西灵石县城","TYPE_PY":"Xian","TYPE_CH":"县","LEV_RANK":"6","BEG_YR":590,"BEG_RULE":"4","END_YR":1911,"END_RULE":"4","NOTE_ID":95223,"OBJ_TYPE":"POINT","SYS_ID":95223,"GEO_SRC":"FROM_AC","COMPILER":null,"GECOMPLR":null,"CHECKER":null,"ENT_DATE":null,"BEG_CHG_TY":"新建","END_CHG_TY":"数据下限"},"geometry":{"type":"Point","coordinates":[111.776215,36.842152]}},{"type":"Feature","properties":{"NAME_PY":"Zhaocheng Xian","NAME_CH":"赵城县","NAME_FT":"趙城縣","X_COOR":111.675247,"Y_COOR":36.390411,"PRES_LOC":"今山西洪洞县北赵城镇","TYPE_PY":"Xian","TYPE_CH":"县","LEV_RANK":"6","BEG_YR":664,"BEG_RULE":"4","END_YR":1071,"END_RULE":"4","NOTE_ID":95225,"OBJ_TYPE":"POINT","SYS_ID":95225,"GEO_SRC":"FROM_AC","COMPILER":null,"GECOMPLR":null,"CHECKER":null,"ENT_DATE":null,"BEG_CHG_TY":"治所迁移","END_CHG_TY":"撤销"},"geometry":{"type":"Point","coordinates":[111.675247,36.390411]}},{"type":"Feature","properties":{"NAME_PY":"Zhaocheng Xian","NAME_CH":"赵城县","NAME_FT":"趙城縣","X_COOR":111.675247,"Y_COOR":36.390411,"PRES_LOC":"今山西洪洞县北赵城镇","TYPE_PY":"Xian","TYPE_CH":"县","LEV_RANK":"6","BEG_YR":1080,"BEG_RULE":"4","END_YR":1112,"END_RULE":"4","NOTE_ID":95227,"OBJ_TYPE":"POINT","SYS_ID":95227,"GEO_SRC":"FROM_AC","COMPILER":null,"GECOMPLR":null,"CHECKER":null,"ENT_DATE":null,"BEG_CHG_TY":"新建","END_CHG_TY":"撤销"},"geometry":{"type":"Point","coordinates":[111.675247,36.390411]}},{"type":"Feature","properties":{"NAME_PY":"Longmen","NAME_CH":"龙门县","NAME_FT":"龍門县","X_COOR":110.662392,"Y_COOR":35.576092,"PRES_LOC":"山西省河津县西阳村乡太阳堡村东","TYPE_PY":"Xian","TYPE_CH":"县","LEV_RANK":"6","BEG_YR":446,"BEG_RULE":"4","END_YR":1119,"END_RULE":"4","NOTE_ID":95231,"OBJ_TYPE":"POINT","SYS_ID":95231,"GEO_SRC":"FROM_FD","COMPILER":null,"GECOMPLR":null,"CHECKER":null,"ENT_DATE":null,"BEG_CHG_TY":"更名","END_CHG_TY":"更名"},"geometry":{"type":"Point","coordinates":[110.662392,35.576092]}},{"type":"Feature","properties":{"NAME_PY":"Hejin Xian","NAME_CH":"河津县","NAME_FT":"河津縣","X_COOR":110.662392,"Y_COOR":35.576092,"PRES_LOC":"今山西省河津县西阳村乡太阳堡村东","TYPE_PY":"Xian","TYPE_CH":"县","LEV_RANK":"6","BEG_YR":1120,"BEG_RULE":"4","END_YR":1311,"END_RULE":"4","NOTE_ID":95232,"OBJ_TYPE":"POINT","SYS_ID":95232,"GEO_SRC":"FROM_FD","COMPILER":null,"GECOMPLR":null,"CHECKER":null,"ENT_DATE":null,"BEG_CHG_TY":"更名","END_CHG_TY":"治所迁移"},"geometry":{"type":"Point","coordinates":[110.662392,35.576092]}},{"type":"Feature","properties":{"NAME_PY":"Jishan Xian","NAME_CH":"稷山县","NAME_FT":"稷山縣","X_COOR":110.978828,"Y_COOR":35.602161,"PRES_LOC":"今山西稷山县城关","TYPE_PY":"Xian","TYPE_CH":"县","LEV_RANK":"6","BEG_YR":598,"BEG_RULE":"4","END_YR":1911,"END_RULE":"6","NOTE_ID":95237,"OBJ_TYPE":"POINT","SYS_ID":95237,"GEO_SRC":"FROM_AC","COMPILER":null,"GECOMPLR":null,"CHECKER":null,"ENT_DATE":null,"BEG_CHG_TY":"更名和治所迁移","END_CHG_TY":"数据下限"},"geometry":{"type":"Point","coordinates":[110.978828,35.602161]}},{"type":"Feature","properties":{"NAME_PY":"Jiang Xian","NAME_CH":"绛县","NAME_FT":"絳縣","X_COOR":111.561325,"Y_COOR":35.489243,"PRES_LOC":"今山西绛县城关","TYPE_PY":"Xian","TYPE_CH":"县","LEV_RANK":"6","BEG_YR":618,"BEG_RULE":"4","END_YR":1911,"END_RULE":"6","NOTE_ID":95240,"OBJ_TYPE":"POINT","SYS_ID":95240,"GEO_SRC":"FROM_AC","COMPILER":null,"GECOMPLR":null,"CHECKER":null,"ENT_DATE":null,"BEG_CHG_TY":"治所迁移","END_CHG_TY":"数据下限"},"geometry":{"type":"Point","coordinates":[111.561325,35.489243]}},{"type":"Feature","properties":{"NAME_PY":"Zhengping Xian","NAME_CH":"正平县","NAME_FT":"正平縣","X_COOR":111.219704,"Y_COOR":35.613621,"PRES_LOC":"今山西新绛县城关","TYPE_PY":"Xian","TYPE_CH":"县","LEV_RANK":"6","BEG_YR":598,"BEG_RULE":"4","END_YR":1367,"END_RULE":"4","NOTE_ID":95244,"OBJ_TYPE":"POINT","SYS_ID":95244,"GEO_SRC":"FROM_FD","COMPILER":null,"GECOMPLR":null,"CHECKER":null,"ENT_DATE":null,"BEG_CHG_TY":"更名","END_CHG_TY":"撤销"},"geometry":{"type":"Point","coordinates":[111.219704,35.613621]}},{"type":"Feature","properties":{"NAME_PY":"Wenxi Xian","NAME_CH":"闻喜县","NAME_FT":"聞喜縣","X_COOR":111.217209,"Y_COOR":35.357723,"PRES_LOC":"今山西闻喜县城关","TYPE_PY":"Xian","TYPE_CH":"县","LEV_RANK":"6","BEG_YR":948,"BEG_RULE":"4","END_YR":1911,"END_RULE":"6","NOTE_ID":95254,"OBJ_TYPE":"POINT","SYS_ID":95254,"GEO_SRC":"FROM_AC","COMPILER":null,"GECOMPLR":null,"CHECKER":null,"ENT_DATE":null,"BEG_CHG_TY":"治所迁移","END_CHG_TY":"数据下限"},"geometry":{"type":"Point","coordinates":[111.217209,35.357723]}},{"type":"Feature","properties":{"NAME_PY":"Yuanqu Xian","NAME_CH":"垣曲县","NAME_FT":"垣曲縣","X_COOR":111.87706,"Y_COOR":35.096607,"PRES_LOC":"今山西省垣曲县古城镇","TYPE_PY":"Xian","TYPE_CH":"县","LEV_RANK":"6","BEG_YR":960,"BEG_RULE":"4","END_YR":1264,"END_RULE":"4","NOTE_ID":95260,"OBJ_TYPE":"POINT","SYS_ID":95260,"GEO_SRC":"FROM_AC","COMPILER":null,"GECOMPLR":null,"CHECKER":null,"ENT_DATE":null,"BEG_CHG_TY":"更名","END_CHG_TY":"撤销"},"geometry":{"type":"Point","coordinates":[111.87706,35.096607]}},{"type":"Feature","properties":{"NAME_PY":"Anyi Xian","NAME_CH":"安邑县","NAME_FT":"安邑縣","X_COOR":111.042419,"Y_COOR":35.062,"PRES_LOC":"今山西运城市盐湖区安邑镇","TYPE_PY":"Xian","TYPE_CH":"县","LEV_RANK":"6","BEG_YR":769,"BEG_RULE":"4","END_YR":1911,"END_RULE":"6","NOTE_ID":95272,"OBJ_TYPE":"POINT","SYS_ID":95272,"GEO_SRC":"FROM_AC","COMPILER":null,"GECOMPLR":null,"CHECKER":null,"ENT_DATE":null,"BEG_CHG_TY":"更名","END_CHG_TY":"数据下限"},"geometry":{"type":"Point","coordinates":[111.042419,35.062]}},{"type":"Feature","properties":{"NAME_PY":"Jie Xian","NAME_CH":"解县","NAME_FT":"解縣","X_COOR":110.855438,"Y_COOR":34.911781,"PRES_LOC":"今山西运城县西南解州","TYPE_PY":"Xian","TYPE_CH":"县","LEV_RANK":"6","BEG_YR":648,"BEG_RULE":"4","END_YR":1367,"END_RULE":"4","NOTE_ID":95276,"OBJ_TYPE":"POINT","SYS_ID":95276,"GEO_SRC":"FROM_AC","COMPILER":null,"GECOMPLR":null,"CHECKER":null,"ENT_DATE":null,"BEG_CHG_TY":"新建","END_CHG_TY":"更名"},"geometry":{"type":"Point","coordinates":[110.855438,34.911781]}},{"type":"Feature","properties":{"NAME_PY":"Pinglu Xian","NAME_CH":"平陆县","NAME_FT":"平陸縣","X_COOR":111.113324,"Y_COOR":34.802203,"PRES_LOC":"今山西平陆县平陆老城","TYPE_PY":"Xian","TYPE_CH":"县","LEV_RANK":"6","BEG_YR":742,"BEG_RULE":"4","END_YR":1911,"END_RULE":"6","NOTE_ID":95282,"OBJ_TYPE":"POINT","SYS_ID":95282,"GEO_SRC":"FROM_FD","COMPILER":null,"GECOMPLR":null,"CHECKER":null,"ENT_DATE":null,"BEG_CHG_TY":"更名","END_CHG_TY":"数据下限"},"geometry":{"type":"Point","coordinates":[111.113324,34.802203]}},{"type":"Feature","properties":{"NAME_PY":"Ruicheng Xian","NAME_CH":"芮城县","NAME_FT":"芮城縣","X_COOR":110.688294,"Y_COOR":34.697308,"PRES_LOC":"今山西芮城城关","TYPE_PY":"Xian","TYPE_CH":"县","LEV_RANK":"6","BEG_YR":560,"BEG_RULE":"4","END_YR":1911,"END_RULE":"6","NOTE_ID":95284,"OBJ_TYPE":"POINT","SYS_ID":95284,"GEO_SRC":"FROM_AC","COMPILER":null,"GECOMPLR":null,"CHECKER":null,"ENT_DATE":null,"BEG_CHG_TY":"更名和治所迁移","END_CHG_TY":"数据下限"},"geometry":{"type":"Point","coordinates":[110.688294,34.697308]}},{"type":"Feature","properties":{"NAME_PY":"Yongle Xian","NAME_CH":"永乐县","NAME_FT":"永樂縣","X_COOR":110.547371,"Y_COOR":34.623436,"PRES_LOC":"今山西芮城县西南永乐镇","TYPE_PY":"Xian","TYPE_CH":"县","LEV_RANK":"6","BEG_YR":624,"BEG_RULE":"4","END_YR":1012,"END_RULE":"4","NOTE_ID":95288,"OBJ_TYPE":"POINT","SYS_ID":95288,"GEO_SRC":"FROM_FD","COMPILER":null,"GECOMPLR":null,"CHECKER":null,"ENT_DATE":null,"BEG_CHG_TY":"治所迁移","END_CHG_TY":"撤销"},"geometry":{"type":"Point","coordinates":[110.547371,34.623436]}},{"type":"Feature","properties":{"NAME_PY":"Xia Xian","NAME_CH":"夏县","NAME_FT":"夏縣","X_COOR":111.220055,"Y_COOR":35.137451,"PRES_LOC":"今山西夏县城关","TYPE_PY":"Xian","TYPE_CH":"县","LEV_RANK":"6","BEG_YR":578,"BEG_RULE":"4","END_YR":1911,"END_RULE":"6","NOTE_ID":95294,"OBJ_TYPE":"POINT","SYS_ID":95294,"GEO_SRC":"FROM_AC","COMPILER":null,"GECOMPLR":null,"CHECKER":null,"ENT_DATE":null,"BEG_CHG_TY":"治所迁移","END_CHG_TY":"数据下限"},"geometry":{"type":"Point","coordinates":[111.220055,35.137451]}},{"type":"Feature","properties":{"NAME_PY":"Pingcheng Xian","NAME_CH":"平城县","NAME_FT":"平城縣","X_COOR":113.096759,"Y_COOR":37.393684,"PRES_LOC":"今山西和顺县横岭镇仪城村","TYPE_PY":"Xian","TYPE_CH":"县","LEV_RANK":"6","BEG_YR":596,"BEG_RULE":"4","END_YR":1073,"END_RULE":"4","NOTE_ID":95297,"OBJ_TYPE":"POINT","SYS_ID":95297,"GEO_SRC":"FROM_FD","COMPILER":null,"GECOMPLR":null,"CHECKER":null,"ENT_DATE":null,"BEG_CHG_TY":"新建","END_CHG_TY":"撤销"},"geometry":{"type":"Point","coordinates":[113.096759,37.393684]}},{"type":"Feature","properties":{"NAME_PY":"Pingcheng Xian","NAME_CH":"平城县","NAME_FT":"平城縣","X_COOR":113.096759,"Y_COOR":37.393684,"PRES_LOC":"今山西和顺县横岭镇仪城村","TYPE_PY":"Xian","TYPE_CH":"县","LEV_RANK":"6","BEG_YR":1086,"BEG_RULE":"4","END_YR":1153,"END_RULE":"4","NOTE_ID":95298,"OBJ_TYPE":"POINT","SYS_ID":95298,"GEO_SRC":"FROM_FD","COMPILER":null,"GECOMPLR":null,"CHECKER":null,"ENT_DATE":null,"BEG_CHG_TY":"新建","END_CHG_TY":"撤销"},"geometry":{"type":"Point","coordinates":[113.096759,37.393684]}},{"type":"Feature","properties":{"NAME_PY":"Heshun Xian","NAME_CH":"和顺县","NAME_FT":"和順縣","X_COOR":113.55689,"Y_COOR":37.337497,"PRES_LOC":"今山西和顺县义兴镇北关村西北约二公里","TYPE_PY":"Xian","TYPE_CH":"县","LEV_RANK":"6","BEG_YR":590,"BEG_RULE":"4","END_YR":1073,"END_RULE":"4","NOTE_ID":95300,"OBJ_TYPE":"POINT","SYS_ID":95300,"GEO_SRC":"FROM_FD","COMPILER":null,"GECOMPLR":null,"CHECKER":null,"ENT_DATE":null,"BEG_CHG_TY":"更名","END_CHG_TY":"撤销"},"geometry":{"type":"Point","coordinates":[113.55689,37.337497]}},{"type":"Feature","properties":{"NAME_PY":"Heshun Xian","NAME_CH":"和顺县","NAME_FT":"和順縣","X_COOR":113.55689,"Y_COOR":37.337497,"PRES_LOC":"今山西和顺县义兴镇北关村西北约二公里","TYPE_PY":"Xian","TYPE_CH":"县","LEV_RANK":"6","BEG_YR":1086,"BEG_RULE":"4","END_YR":1353,"END_RULE":"4","NOTE_ID":95301,"OBJ_TYPE":"POINT","SYS_ID":95301,"GEO_SRC":"FROM_FD","COMPILER":null,"GECOMPLR":null,"CHECKER":null,"ENT_DATE":null,"BEG_CHG_TY":"新建","END_CHG_TY":"治所迁移"},"geometry":{"type":"Point","coordinates":[113.55689,37.337497]}},{"type":"Feature","properties":{"NAME_PY":"Liaoshan Xian","NAME_CH":"辽山县","NAME_FT":"遼山縣","X_COOR":113.36811,"Y_COOR":37.07428,"PRES_LOC":"今山西左权县城","TYPE_PY":"Xian","TYPE_CH":"县","LEV_RANK":"6","BEG_YR":590,"BEG_RULE":"4","END_YR":1367,"END_RULE":"4","NOTE_ID":95308,"OBJ_TYPE":"POINT","SYS_ID":95308,"GEO_SRC":"FROM_AC","COMPILER":null,"GECOMPLR":null,"CHECKER":null,"ENT_DATE":null,"BEG_CHG_TY":"新建","END_CHG_TY":"撤销"},"geometry":{"type":"Point","coordinates":[113.36811,37.07428]}},{"type":"Feature","properties":{"NAME_PY":"Yushe Xian","NAME_CH":"榆社县","NAME_FT":"榆社縣","X_COOR":112.963661,"Y_COOR":37.070942,"PRES_LOC":"今山西榆社县城","TYPE_PY":"Xian","TYPE_CH":"县","LEV_RANK":"6","BEG_YR":617,"BEG_RULE":"4","END_YR":1073,"END_RULE":"4","NOTE_ID":95310,"OBJ_TYPE":"POINT","SYS_ID":95310,"GEO_SRC":"FROM_AC","COMPILER":null,"GECOMPLR":null,"CHECKER":null,"ENT_DATE":null,"BEG_CHG_TY":"新建","END_CHG_TY":"撤销"},"geometry":{"type":"Point","coordinates":[112.963661,37.070942]}},{"type":"Feature","properties":{"NAME_PY":"Yushe Xian","NAME_CH":"榆社县","NAME_FT":"榆社縣","X_COOR":112.963661,"Y_COOR":37.070942,"PRES_LOC":"今山西榆社县城","TYPE_PY":"Xian","TYPE_CH":"县","LEV_RANK":"6","BEG_YR":1086,"BEG_RULE":"4","END_YR":1265,"END_RULE":"4","NOTE_ID":95311,"OBJ_TYPE":"POINT","SYS_ID":95311,"GEO_SRC":"FROM_AC","COMPILER":null,"GECOMPLR":null,"CHECKER":null,"ENT_DATE":null,"BEG_CHG_TY":"新建","END_CHG_TY":"撤销"},"geometry":{"type":"Point","coordinates":[112.963661,37.070942]}},{"type":"Feature","properties":{"NAME_PY":"Shangdang Xian","NAME_CH":"上党县","NAME_FT":"上黨縣","X_COOR":113.103485,"Y_COOR":36.183537,"PRES_LOC":"今山西长治市区","TYPE_PY":"Xian","TYPE_CH":"县","LEV_RANK":"6","BEG_YR":607,"BEG_RULE":"4","END_YR":1368,"END_RULE":"4","NOTE_ID":95317,"OBJ_TYPE":"POINT","SYS_ID":95317,"GEO_SRC":"FROM_AC","COMPILER":null,"GECOMPLR":null,"CHECKER":null,"ENT_DATE":null,"BEG_CHG_TY":"治所迁移","END_CHG_TY":"撤销"},"geometry":{"type":"Point","coordinates":[113.103485,36.183537]}},{"type":"Feature","properties":{"NAME_PY":"Changzi Xian","NAME_CH":"长子县","NAME_FT":"長子縣","X_COOR":112.873794,"Y_COOR":36.119934,"PRES_LOC":"今山西长子县城","TYPE_PY":"Xian","TYPE_CH":"县","LEV_RANK":"6","BEG_YR":598,"BEG_RULE":"4","END_YR":1911,"END_RULE":"4","NOTE_ID":95322,"OBJ_TYPE":"POINT","SYS_ID":95322,"GEO_SRC":"FROM_AC","COMPILER":null,"GECOMPLR":null,"CHECKER":null,"ENT_DATE":null,"BEG_CHG_TY":"更名","END_CHG_TY":"数据下限"},"geometry":{"type":"Point","coordinates":[112.873794,36.119934]}},{"type":"Feature","properties":{"NAME_PY":"Huguan Xian","NAME_CH":"壶关县","NAME_FT":"壺關縣","X_COOR":113.199623,"Y_COOR":36.113499,"PRES_LOC":"今山西壶关县城","TYPE_PY":"Xian","TYPE_CH":"县","LEV_RANK":"6","BEG_YR":643,"BEG_RULE":"4","END_YR":1911,"END_RULE":"4","NOTE_ID":95328,"OBJ_TYPE":"POINT","SYS_ID":95328,"GEO_SRC":"FROM_AC","COMPILER":null,"GECOMPLR":null,"CHECKER":null,"ENT_DATE":null,"BEG_CHG_TY":"治所迁移","END_CHG_TY":"数据下限"},"geometry":{"type":"Point","coordinates":[113.199623,36.113499]}},{"type":"Feature","properties":{"NAME_PY":"Licheng Xian","NAME_CH":"黎城县","NAME_FT":"黎城縣","X_COOR":113.360497,"Y_COOR":36.527569,"PRES_LOC":"今山西黎城县古县村","TYPE_PY":"Xian","TYPE_CH":"县","LEV_RANK":"6","BEG_YR":923,"BEG_RULE":"4","END_YR":1024,"END_RULE":"4","NOTE_ID":95332,"OBJ_TYPE":"POINT","SYS_ID":95332,"GEO_SRC":"FROM_FD","COMPILER":null,"GECOMPLR":null,"CHECKER":null,"ENT_DATE":null,"BEG_CHG_TY":"更名","END_CHG_TY":"治所迁移"},"geometry":{"type":"Point","coordinates":[113.360497,36.527569]}},{"type":"Feature","properties":{"NAME_PY":"Licheng Xian","NAME_CH":"黎城县","NAME_FT":"黎城縣","X_COOR":113.380028,"Y_COOR":36.504337,"PRES_LOC":"今山西黎城县城","TYPE_PY":"Xian","TYPE_CH":"县","LEV_RANK":"6","BEG_YR":1025,"BEG_RULE":"4","END_YR":1071,"END_RULE":"4","NOTE_ID":95333,"OBJ_TYPE":"POINT","SYS_ID":95333,"GEO_SRC":"FROM_AC","COMPILER":null,"GECOMPLR":null,"CHECKER":null,"ENT_DATE":null,"BEG_CHG_TY":"治所迁移","END_CHG_TY":"撤销"},"geometry":{"type":"Point","coordinates":[113.380028,36.504337]}},{"type":"Feature","properties":{"NAME_PY":"Licheng Xian","NAME_CH":"黎城县","NAME_FT":"黎城縣","X_COOR":113.380028,"Y_COOR":36.504337,"PRES_LOC":"今山西黎城县城","TYPE_PY":"Xian","TYPE_CH":"县","LEV_RANK":"6","BEG_YR":1086,"BEG_RULE":"4","END_YR":1911,"END_RULE":"6","NOTE_ID":95334,"OBJ_TYPE":"POINT","SYS_ID":95334,"GEO_SRC":"FROM_AC","COMPILER":null,"GECOMPLR":null,"CHECKER":null,"ENT_DATE":null,"BEG_CHG_TY":"新建","END_CHG_TY":"数据下限"},"geometry":{"type":"Point","coordinates":[113.380028,36.504337]}},{"type":"Feature","properties":{"NAME_PY":"Lucheng Xian","NAME_CH":"潞城县","NAME_FT":"潞城縣","X_COOR":113.221146,"Y_COOR":36.335094,"PRES_LOC":"今山西潞城市","TYPE_PY":"Xian","TYPE_CH":"县","LEV_RANK":"6","BEG_YR":923,"BEG_RULE":"4","END_YR":1911,"END_RULE":"6","NOTE_ID":95338,"OBJ_TYPE":"POINT","SYS_ID":95338,"GEO_SRC":"FROM_AC","COMPILER":null,"GECOMPLR":null,"CHECKER":null,"ENT_DATE":null,"BEG_CHG_TY":"更名","END_CHG_TY":"数据下限"},"geometry":{"type":"Point","coordinates":[113.221146,36.335094]}},{"type":"Feature","properties":{"NAME_PY":"Tunliu Xian","NAME_CH":"屯留县","NAME_FT":"屯留縣","X_COOR":112.882446,"Y_COOR":36.321949,"PRES_LOC":"今山西屯留县城","TYPE_PY":"Xian","TYPE_CH":"县","LEV_RANK":"6","BEG_YR":622,"BEG_RULE":"4","END_YR":1265,"END_RULE":"4","NOTE_ID":95344,"OBJ_TYPE":"POINT","SYS_ID":95344,"GEO_SRC":"FROM_AC","COMPILER":null,"GECOMPLR":null,"CHECKER":null,"ENT_DATE":null,"BEG_CHG_TY":"治所迁移","END_CHG_TY":"撤销"},"geometry":{"type":"Point","coordinates":[112.882446,36.321949]}},{"type":"Feature","properties":{"NAME_PY":"Xiangyuan Xian","NAME_CH":"襄垣县","NAME_FT":"襄垣縣","X_COOR":113.040764,"Y_COOR":36.534588,"PRES_LOC":"今山西襄垣县城","TYPE_PY":"Xian","TYPE_CH":"县","LEV_RANK":"6","BEG_YR":618,"BEG_RULE":"4","END_YR":1911,"END_RULE":"6","NOTE_ID":95352,"OBJ_TYPE":"POINT","SYS_ID":95352,"GEO_SRC":"FROM_AC","COMPILER":null,"GECOMPLR":null,"CHECKER":null,"ENT_DATE":null,"BEG_CHG_TY":"治所迁移","END_CHG_TY":"数据下限"},"geometry":{"type":"Point","coordinates":[113.040764,36.534588]}},{"type":"Feature","properties":{"NAME_PY":"Ninghua Xian","NAME_CH":"宁化县","NAME_FT":"寧化縣","X_COOR":112.100998,"Y_COOR":38.642059,"PRES_LOC":"今山西宁武县宁化村","TYPE_PY":"Xian","TYPE_CH":"县","LEV_RANK":"6","BEG_YR":979,"BEG_RULE":"4","END_YR":1069,"END_RULE":"4","NOTE_ID":95355,"OBJ_TYPE":"POINT","SYS_ID":95355,"GEO_SRC":"FROM_AC","COMPILER":null,"GECOMPLR":null,"CHECKER":null,"ENT_DATE":null,"BEG_CHG_TY":"新建","END_CHG_TY":"撤销"},"geometry":{"type":"Point","coordinates":[112.100998,38.642059]}},{"type":"Feature","properties":{"NAME_PY":"Ninghua Xian","NAME_CH":"宁化县","NAME_FT":"寧化縣","X_COOR":112.100998,"Y_COOR":38.642059,"PRES_LOC":"今山西宁武县宁化村","TYPE_PY":"Xian","TYPE_CH":"县","LEV_RANK":"6","BEG_YR":1086,"BEG_RULE":"4","END_YR":1104,"END_RULE":"4","NOTE_ID":95356,"OBJ_TYPE":"POINT","SYS_ID":95356,"GEO_SRC":"FROM_AC","COMPILER":null,"GECOMPLR":null,"CHECKER":null,"ENT_DATE":null,"BEG_CHG_TY":"新建","END_CHG_TY":"撤销"},"geometry":{"type":"Point","coordinates":[112.100998,38.642059]}},{"type":"Feature","properties":{"NAME_PY":"Ningyuan Xian","NAME_CH":"宁远县","NAME_FT":"寧遠縣","X_COOR":111.790169,"Y_COOR":39.029186,"PRES_LOC":"今山西五寨县小河头镇大武州村","TYPE_PY":"Xian","TYPE_CH":"县","LEV_RANK":"6","BEG_YR":937,"BEG_RULE":"4","END_YR":1266,"END_RULE":"4","NOTE_ID":95367,"OBJ_TYPE":"POINT","SYS_ID":95367,"GEO_SRC":"FROM_FD","COMPILER":null,"GECOMPLR":null,"CHECKER":null,"ENT_DATE":null,"BEG_CHG_TY":"新建","END_CHG_TY":"撤销"},"geometry":{"type":"Point","coordinates":[111.790169,39.029186]}},{"type":"Feature","properties":{"NAME_PY":"Guangyang Xian","NAME_CH":"广阳县","NAME_FT":"廣陽縣","X_COOR":113.622269,"Y_COOR":37.802036,"PRES_LOC":"今山西平定县新城村","TYPE_PY":"Xian","TYPE_CH":"县","LEV_RANK":"6","BEG_YR":742,"BEG_RULE":"4","END_YR":978,"END_RULE":"4","NOTE_ID":95372,"OBJ_TYPE":"POINT","SYS_ID":95372,"GEO_SRC":"FROM_AC","COMPILER":null,"GECOMPLR":null,"CHECKER":null,"ENT_DATE":null,"BEG_CHG_TY":"更名","END_CHG_TY":"更名"},"geometry":{"type":"Point","coordinates":[113.622269,37.802036]}},{"type":"Feature","properties":{"NAME_PY":"Pingding Xian","NAME_CH":"平定县","NAME_FT":"平定縣","X_COOR":113.622269,"Y_COOR":37.802036,"PRES_LOC":"今山西平定县城","TYPE_PY":"Xian","TYPE_CH":"县","LEV_RANK":"6","BEG_YR":979,"BEG_RULE":"4","END_YR":1265,"END_RULE":"4","NOTE_ID":95373,"OBJ_TYPE":"POINT","SYS_ID":95373,"GEO_SRC":"FROM_AC","COMPILER":null,"GECOMPLR":null,"CHECKER":null,"ENT_DATE":null,"BEG_CHG_TY":"更名","END_CHG_TY":"更名"},"geometry":{"type":"Point","coordinates":[113.622269,37.802036]}},{"type":"Feature","properties":{"NAME_PY":"Leping Xian","NAME_CH":"乐平县","NAME_FT":"樂平縣","X_COOR":113.57386,"Y_COOR":37.59565,"PRES_LOC":"今山西昔阳县掌城村","TYPE_PY":"Xian","TYPE_CH":"县","LEV_RANK":"6","BEG_YR":556,"BEG_RULE":"4","END_YR":962,"END_RULE":"4","NOTE_ID":95376,"OBJ_TYPE":"POINT","SYS_ID":95376,"GEO_SRC":"FROM_FD","COMPILER":null,"GECOMPLR":null,"CHECKER":null,"ENT_DATE":null,"BEG_CHG_TY":"治所迁移","END_CHG_TY":"撤销"},"geometry":{"type":"Point","coordinates":[113.57386,37.59565]}},{"type":"Feature","properties":{"NAME_PY":"Leping Xian","NAME_CH":"乐平县","NAME_FT":"樂平縣","X_COOR":113.6968,"Y_COOR":37.608364,"PRES_LOC":"今山西昔阳县城","TYPE_PY":"Xian","TYPE_CH":"县","LEV_RANK":"6","BEG_YR":979,"BEG_RULE":"4","END_YR":1219,"END_RULE":"4","NOTE_ID":95377,"OBJ_TYPE":"POINT","SYS_ID":95377,"GEO_SRC":"FROM_AC","COMPILER":null,"GECOMPLR":null,"CHECKER":null,"ENT_DATE":null,"BEG_CHG_TY":"新建","END_CHG_TY":"更名"},"geometry":{"type":"Point","coordinates":[113.6968,37.608364]}},{"type":"Feature","properties":{"NAME_PY":"Fenxi Xian","NAME_CH":"汾西县","NAME_FT":"汾西縣","X_COOR":111.562729,"Y_COOR":36.650539,"PRES_LOC":"今山西汾西县城","TYPE_PY":"Xian","TYPE_CH":"县","LEV_RANK":"6","BEG_YR":632,"BEG_RULE":"4","END_YR":1911,"END_RULE":"6","NOTE_ID":95384,"OBJ_TYPE":"POINT","SYS_ID":95384,"GEO_SRC":"FROM_AC","COMPILER":null,"GECOMPLR":null,"CHECKER":null,"ENT_DATE":null,"BEG_CHG_TY":"治所迁移","END_CHG_TY":"数据下限"},"geometry":{"type":"Point","coordinates":[111.562729,36.650539]}},{"type":"Feature","properties":{"NAME_PY":"Shenshan Xian","NAME_CH":"神山县","NAME_FT":"神山縣","X_COOR":111.842438,"Y_COOR":35.967442,"PRES_LOC":"今山西浮山县","TYPE_PY":"Xian","TYPE_CH":"县","LEV_RANK":"6","BEG_YR":924,"BEG_RULE":"4","END_YR":1166,"END_RULE":"4","NOTE_ID":95388,"OBJ_TYPE":"POINT","SYS_ID":95388,"GEO_SRC":"FROM_AC","COMPILER":null,"GECOMPLR":null,"CHECKER":null,"ENT_DATE":null,"BEG_CHG_TY":"治所迁移","END_CHG_TY":"更名"},"geometry":{"type":"Point","coordinates":[111.842438,35.967442]}},{"type":"Feature","properties":{"NAME_PY":"Hongdong Xian","NAME_CH":"洪洞县","NAME_FT":"洪洞縣","X_COOR":111.682915,"Y_COOR":36.259399,"PRES_LOC":"今山西洪洞县","TYPE_PY":"Xian","TYPE_CH":"县","LEV_RANK":"6","BEG_YR":618,"BEG_RULE":"4","END_YR":1911,"END_RULE":"6","NOTE_ID":95393,"OBJ_TYPE":"POINT","SYS_ID":95393,"GEO_SRC":"FROM_AC","COMPILER":null,"GECOMPLR":null,"CHECKER":null,"ENT_DATE":null,"BEG_CHG_TY":"更名","END_CHG_TY":"数据下限"},"geometry":{"type":"Point","coordinates":[111.682915,36.259399]}},{"type":"Feature","properties":{"NAME_PY":"Jixiang Xian","NAME_CH":"吉乡县","NAME_FT":"吉鄉縣","X_COOR":110.675171,"Y_COOR":36.095631,"PRES_LOC":"今山西吉县","TYPE_PY":"Xian","TYPE_CH":"县","LEV_RANK":"6","BEG_YR":924,"BEG_RULE":"4","END_YR":1265,"END_RULE":"4","NOTE_ID":95404,"OBJ_TYPE":"POINT","SYS_ID":95404,"GEO_SRC":"FROM_AC","COMPILER":null,"GECOMPLR":null,"CHECKER":null,"ENT_DATE":null,"BEG_CHG_TY":"更名","END_CHG_TY":"撤销"},"geometry":{"type":"Point","coordinates":[110.675171,36.095631]}},{"type":"Feature","properties":{"NAME_PY":"Wencheng Xian","NAME_CH":"文城县","NAME_FT":"文城縣","X_COOR":110.506981,"Y_COOR":36.219128,"PRES_LOC":"今山西吉县西北30公里文城镇","TYPE_PY":"Xian","TYPE_CH":"县","LEV_RANK":"6","BEG_YR":924,"BEG_RULE":"4","END_YR":1071,"END_RULE":"4","NOTE_ID":95410,"OBJ_TYPE":"POINT","SYS_ID":95410,"GEO_SRC":"FROM_FD","COMPILER":null,"GECOMPLR":null,"CHECKER":null,"ENT_DATE":null,"BEG_CHG_TY":"更名","END_CHG_TY":"撤销"},"geometry":{"type":"Point","coordinates":[110.506981,36.219128]}},{"type":"Feature","properties":{"NAME_PY":"Linfen Xian","NAME_CH":"临汾县","NAME_FT":"臨汾縣","X_COOR":111.515434,"Y_COOR":36.078037,"PRES_LOC":"今山西临汾市","TYPE_PY":"Xian","TYPE_CH":"县","LEV_RANK":"6","BEG_YR":583,"BEG_RULE":"4","END_YR":1911,"END_RULE":"4","NOTE_ID":95421,"OBJ_TYPE":"POINT","SYS_ID":95421,"GEO_SRC":"FROM_AC","COMPILER":null,"GECOMPLR":null,"CHECKER":null,"ENT_DATE":null,"BEG_CHG_TY":"更名","END_CHG_TY":"数据下限"},"geometry":{"type":"Point","coordinates":[111.515434,36.078037]}},{"type":"Feature","properties":{"NAME_PY":"Quwo Xian","NAME_CH":"曲沃县","NAME_FT":"曲沃縣","X_COOR":111.470024,"Y_COOR":35.641285,"PRES_LOC":"今山西曲沃县城","TYPE_PY":"Xian","TYPE_CH":"县","LEV_RANK":"6","BEG_YR":590,"BEG_RULE":"4","END_YR":1911,"END_RULE":"6","NOTE_ID":95426,"OBJ_TYPE":"POINT","SYS_ID":95426,"GEO_SRC":"FROM_AC","COMPILER":null,"GECOMPLR":null,"CHECKER":null,"ENT_DATE":null,"BEG_CHG_TY":"治所迁移","END_CHG_TY":"数据下限"},"geometry":{"type":"Point","coordinates":[111.470024,35.641285]}},{"type":"Feature","properties":{"NAME_PY":"Xiangning Xian","NAME_CH":"乡宁县","NAME_FT":"鄉寧縣","X_COOR":110.791195,"Y_COOR":35.981882,"PRES_LOC":"今山西乡宁县西南20公里西庄村","TYPE_PY":"Xian","TYPE_CH":"县","LEV_RANK":"6","BEG_YR":923,"BEG_RULE":"4","END_YR":1071,"END_RULE":"4","NOTE_ID":95437,"OBJ_TYPE":"POINT","SYS_ID":95437,"GEO_SRC":"FROM_FD","COMPILER":null,"GECOMPLR":null,"CHECKER":null,"ENT_DATE":null,"BEG_CHG_TY":"更名","END_CHG_TY":"撤销"},"geometry":{"type":"Point","coordinates":[110.791195,35.981882]}},{"type":"Feature","properties":{"NAME_PY":"Xiangling Xian","NAME_CH":"襄陵县","NAME_FT":"襄陵縣","X_COOR":111.375427,"Y_COOR":36.013179,"PRES_LOC":"今山西襄汾县西北古襄陵村","TYPE_PY":"Xian","TYPE_CH":"县","LEV_RANK":"6","BEG_YR":819,"BEG_RULE":"4","END_YR":1022,"END_RULE":"4","NOTE_ID":95445,"OBJ_TYPE":"POINT","SYS_ID":95445,"GEO_SRC":"FROM_FD","COMPILER":null,"GECOMPLR":null,"CHECKER":null,"ENT_DATE":null,"BEG_CHG_TY":"治所迁移","END_CHG_TY":"治所迁移"},"geometry":{"type":"Point","coordinates":[111.375427,36.013179]}},{"type":"Feature","properties":{"NAME_PY":"Xiangling Xian","NAME_CH":"襄陵县","NAME_FT":"襄陵縣","X_COOR":111.396492,"Y_COOR":36.023994,"PRES_LOC":"今襄汾县西北襄陵镇","TYPE_PY":"Xian","TYPE_CH":"县","LEV_RANK":"6","BEG_YR":1023,"BEG_RULE":"4","END_YR":1911,"END_RULE":"4","NOTE_ID":95446,"OBJ_TYPE":"POINT","SYS_ID":95446,"GEO_SRC":"FROM_AC","COMPILER":null,"GECOMPLR":null,"CHECKER":null,"ENT_DATE":null,"BEG_CHG_TY":"治所迁移","END_CHG_TY":"数据下限"},"geometry":{"type":"Point","coordinates":[111.396492,36.023994]}},{"type":"Feature","properties":{"NAME_PY":"Yueyang Xian","NAME_CH":"岳阳县","NAME_FT":"岳陽縣","X_COOR":111.916923,"Y_COOR":36.282902,"PRES_LOC":"今山西古县老城","TYPE_PY":"Xian","TYPE_CH":"县","LEV_RANK":"6","BEG_YR":632,"BEG_RULE":"4","END_YR":1911,"END_RULE":"6","NOTE_ID":95459,"OBJ_TYPE":"POINT","SYS_ID":95459,"GEO_SRC":"FROM_AC","COMPILER":null,"GECOMPLR":null,"CHECKER":null,"ENT_DATE":null,"BEG_CHG_TY":"治所迁移","END_CHG_TY":"数据下限"},"geometry":{"type":"Point","coordinates":[111.916923,36.282902]}},{"type":"Feature","properties":{"NAME_PY":"Hechuan Xian","NAME_CH":"和川县","NAME_FT":"和川縣","X_COOR":112.237526,"Y_COOR":36.269451,"PRES_LOC":"今山西安泽县北和川镇","TYPE_PY":"Xian","TYPE_CH":"县","LEV_RANK":"6","BEG_YR":618,"BEG_RULE":"4","END_YR":1071,"END_RULE":"4","NOTE_ID":95462,"OBJ_TYPE":"POINT","SYS_ID":95462,"GEO_SRC":"FROM_AC","COMPILER":null,"GECOMPLR":null,"CHECKER":null,"ENT_DATE":null,"BEG_CHG_TY":"新建","END_CHG_TY":"撤销"},"geometry":{"type":"Point","coordinates":[112.237526,36.269451]}},{"type":"Feature","properties":{"NAME_PY":"Jishi Xian","NAME_CH":"冀氏县","NAME_FT":"冀氏縣","X_COOR":112.295883,"Y_COOR":36.033543,"PRES_LOC":"今山西安泽县南15公里冀氏镇","TYPE_PY":"Xian","TYPE_CH":"县","LEV_RANK":"6","BEG_YR":528,"BEG_RULE":"4","END_YR":1265,"END_RULE":"4","NOTE_ID":95464,"OBJ_TYPE":"POINT","SYS_ID":95464,"GEO_SRC":"FROM_AC","COMPILER":null,"GECOMPLR":null,"CHECKER":null,"ENT_DATE":null,"BEG_CHG_TY":"新建","END_CHG_TY":"撤销"},"geometry":{"type":"Point","coordinates":[112.295883,36.033543]}},{"type":"Feature","properties":{"NAME_PY":"Hechuan Xian","NAME_CH":"和川县","NAME_FT":"和川縣","X_COOR":112.237526,"Y_COOR":36.269451,"PRES_LOC":"今山西安泽县北和川镇","TYPE_PY":"Xian","TYPE_CH":"县","LEV_RANK":"6","BEG_YR":1086,"BEG_RULE":"4","END_YR":1266,"END_RULE":"4","NOTE_ID":95466,"OBJ_TYPE":"POINT","SYS_ID":95466,"GEO_SRC":"FROM_AC","COMPILER":null,"GECOMPLR":null,"CHECKER":null,"ENT_DATE":null,"BEG_CHG_TY":"新建","END_CHG_TY":"撤销"},"geometry":{"type":"Point","coordinates":[112.237526,36.269451]}},{"type":"Feature","properties":{"NAME_PY":"Linjin Xian","NAME_CH":"临晋县","NAME_FT":"臨晉縣","X_COOR":110.551643,"Y_COOR":35.097809,"PRES_LOC":"今山西临猗县临晋镇","TYPE_PY":"Xian","TYPE_CH":"县","LEV_RANK":"6","BEG_YR":754,"BEG_RULE":"4","END_YR":1911,"END_RULE":"4","NOTE_ID":95469,"OBJ_TYPE":"POINT","SYS_ID":95469,"GEO_SRC":"FROM_AC","COMPILER":null,"GECOMPLR":null,"CHECKER":null,"ENT_DATE":null,"BEG_CHG_TY":"更名","END_CHG_TY":"数据下限"},"geometry":{"type":"Point","coordinates":[110.551643,35.097809]}},{"type":"Feature","properties":{"NAME_PY":"Baoding Xian","NAME_CH":"宝鼎县","NAME_FT":"寶鼎縣","X_COOR":110.483235,"Y_COOR":35.312033,"PRES_LOC":"今山西省万荣县西南荣河镇宝井村北","TYPE_PY":"Xian","TYPE_CH":"县","LEV_RANK":"6","BEG_YR":723,"BEG_RULE":"4","END_YR":1010,"END_RULE":"4","NOTE_ID":95473,"OBJ_TYPE":"POINT","SYS_ID":95473,"GEO_SRC":"FROM_FD","COMPILER":null,"GECOMPLR":null,"CHECKER":null,"ENT_DATE":null,"BEG_CHG_TY":"更名","END_CHG_TY":"更名"},"geometry":{"type":"Point","coordinates":[110.483235,35.312033]}},{"type":"Feature","properties":{"NAME_PY":"Ronghe Xian","NAME_CH":"荣河县","NAME_FT":"榮河縣","X_COOR":110.483235,"Y_COOR":35.312033,"PRES_LOC":"今山西省万荣县西南荣河镇宝井村北","TYPE_PY":"Xian","TYPE_CH":"县","LEV_RANK":"6","BEG_YR":1011,"BEG_RULE":"4","END_YR":1214,"END_RULE":"4","NOTE_ID":95474,"OBJ_TYPE":"POINT","SYS_ID":95474,"GEO_SRC":"FROM_FD","COMPILER":null,"GECOMPLR":null,"CHECKER":null,"ENT_DATE":null,"BEG_CHG_TY":"更名","END_CHG_TY":"撤销"},"geometry":{"type":"Point","coordinates":[110.483235,35.312033]}},{"type":"Feature","properties":{"NAME_PY":"Wanquan Xian","NAME_CH":"万泉县","NAME_FT":"萬泉縣","X_COOR":110.801264,"Y_COOR":35.36078,"PRES_LOC":"今山西万荣县万泉乡古城村万泉县故城","TYPE_PY":"Xian","TYPE_CH":"县","LEV_RANK":"6","BEG_YR":620,"BEG_RULE":"4","END_YR":1265,"END_RULE":"5","NOTE_ID":95477,"OBJ_TYPE":"POINT","SYS_ID":95477,"GEO_SRC":"FROM_FD","COMPILER":null,"GECOMPLR":null,"CHECKER":null,"ENT_DATE":null,"BEG_CHG_TY":"新建","END_CHG_TY":"撤销"},"geometry":{"type":"Point","coordinates":[110.801264,35.36078]}},{"type":"Feature","properties":{"NAME_PY":"Yishi Xian","NAME_CH":"猗氏县","NAME_FT":"猗氏縣","X_COOR":110.77404,"Y_COOR":35.147945,"PRES_LOC":"今山西临猗县城","TYPE_PY":"Xian","TYPE_CH":"县","LEV_RANK":"6","BEG_YR":613,"BEG_RULE":"4","END_YR":1911,"END_RULE":"4","NOTE_ID":95481,"OBJ_TYPE":"POINT","SYS_ID":95481,"GEO_SRC":"FROM_AC","COMPILER":null,"GECOMPLR":null,"CHECKER":null,"ENT_DATE":null,"BEG_CHG_TY":"治所迁移","END_CHG_TY":"数据下限"},"geometry":{"type":"Point","coordinates":[110.77404,35.147945]}},{"type":"Feature","properties":{"NAME_PY":"Yuxiang Xian","NAME_CH":"虞乡县","NAME_FT":"虞鄉縣","X_COOR":110.617546,"Y_COOR":34.859409,"PRES_LOC":"今山西永济县东虞乡镇","TYPE_PY":"Xian","TYPE_CH":"县","LEV_RANK":"6","BEG_YR":691,"BEG_RULE":"4","END_YR":1265,"END_RULE":"4","NOTE_ID":95488,"OBJ_TYPE":"POINT","SYS_ID":95488,"GEO_SRC":"FROM_AC","COMPILER":null,"GECOMPLR":null,"CHECKER":null,"ENT_DATE":null,"BEG_CHG_TY":"新建","END_CHG_TY":"撤销"},"geometry":{"type":"Point","coordinates":[110.617546,34.859409]}},{"type":"Feature","properties":{"NAME_PY":"Hedong Xian","NAME_CH":"河东县","NAME_FT":"河東縣","X_COOR":110.332306,"Y_COOR":34.835129,"PRES_LOC":"今山西永济县西南蒲州镇","TYPE_PY":"Xian","TYPE_CH":"县","LEV_RANK":"6","BEG_YR":596,"BEG_RULE":"4","END_YR":1368,"END_RULE":"4","NOTE_ID":95497,"OBJ_TYPE":"POINT","SYS_ID":95497,"GEO_SRC":"FROM_AC","COMPILER":null,"GECOMPLR":null,"CHECKER":null,"ENT_DATE":null,"BEG_CHG_TY":"新建","END_CHG_TY":"撤销"},"geometry":{"type":"Point","coordinates":[110.332306,34.835129]}},{"type":"Feature","properties":{"NAME_PY":"Tongdi Xian","NAME_CH":"铜鞮县","NAME_FT":"銅鞮縣","X_COOR":112.619591,"Y_COOR":36.595699,"PRES_LOC":"今山西沁县故县镇","TYPE_PY":"Xian","TYPE_CH":"县","LEV_RANK":"6","BEG_YR":623,"BEG_RULE":"4","END_YR":976,"END_RULE":"4","NOTE_ID":95505,"OBJ_TYPE":"POINT","SYS_ID":95505,"GEO_SRC":"FROM_FD","COMPILER":null,"GECOMPLR":null,"CHECKER":null,"ENT_DATE":null,"BEG_CHG_TY":"治所迁移","END_CHG_TY":"治所迁移"},"geometry":{"type":"Point","coordinates":[112.619591,36.595699]}},{"type":"Feature","properties":{"NAME_PY":"Tongdi Xian","NAME_CH":"铜鞮县","NAME_FT":"銅鞮縣","X_COOR":112.698982,"Y_COOR":36.757431,"PRES_LOC":"今山西沁县县城","TYPE_PY":"Xian","TYPE_CH":"县","LEV_RANK":"6","BEG_YR":977,"BEG_RULE":"4","END_YR":1368,"END_RULE":"4","NOTE_ID":95506,"OBJ_TYPE":"POINT","SYS_ID":95506,"GEO_SRC":"FROM_AC","COMPILER":null,"GECOMPLR":null,"CHECKER":null,"ENT_DATE":null,"BEG_CHG_TY":"治所迁移","END_CHG_TY":"撤销"},"geometry":{"type":"Point","coordinates":[112.698982,36.757431]}},{"type":"Feature","properties":{"NAME_PY":"Qinyuan Xian","NAME_CH":"沁源县","NAME_FT":"沁源縣","X_COOR":112.329559,"Y_COOR":36.497116,"PRES_LOC":"今山西沁源县城","TYPE_PY":"Xian","TYPE_CH":"县","LEV_RANK":"6","BEG_YR":528,"BEG_RULE":"4","END_YR":1222,"END_RULE":"4","NOTE_ID":95510,"OBJ_TYPE":"POINT","SYS_ID":95510,"GEO_SRC":"FROM_AC","COMPILER":null,"GECOMPLR":null,"CHECKER":null,"ENT_DATE":null,"BEG_CHG_TY":"新建","END_CHG_TY":"更名"},"geometry":{"type":"Point","coordinates":[112.329559,36.497116]}},{"type":"Feature","properties":{"NAME_PY":"Mianshang Xian","NAME_CH":"绵上县","NAME_FT":"綿上縣","X_COOR":112.248094,"Y_COOR":36.82454,"PRES_LOC":"今山西沁源县西北境","TYPE_PY":"Xian","TYPE_CH":"县","LEV_RANK":"6","BEG_YR":596,"BEG_RULE":"4","END_YR":1045,"END_RULE":"4","NOTE_ID":95512,"OBJ_TYPE":"POINT","SYS_ID":95512,"GEO_SRC":"FROM_FD","COMPILER":null,"GECOMPLR":null,"CHECKER":null,"ENT_DATE":null,"BEG_CHG_TY":"新建","END_CHG_TY":"治所迁移"},"geometry":{"type":"Point","coordinates":[112.248094,36.82454]}},{"type":"Feature","properties":{"NAME_PY":"Mianshang Xian","NAME_CH":"绵上县","NAME_FT":"綿上縣","X_COOR":112.262146,"Y_COOR":36.744476,"PRES_LOC":"今山西沁源县绵上村","TYPE_PY":"Xian","TYPE_CH":"县","LEV_RANK":"6","BEG_YR":1046,"BEG_RULE":"4","END_YR":1273,"END_RULE":"4","NOTE_ID":95513,"OBJ_TYPE":"POINT","SYS_ID":95513,"GEO_SRC":"FROM_FD","COMPILER":null,"GECOMPLR":null,"CHECKER":null,"ENT_DATE":null,"BEG_CHG_TY":"治所迁移","END_CHG_TY":"撤销"},"geometry":{"type":"Point","coordinates":[112.262146,36.744476]}},{"type":"Feature","properties":{"NAME_PY":"Wuxiang Xian","NAME_CH":"武乡县","NAME_FT":"武鄉縣","X_COOR":112.916267,"Y_COOR":36.826817,"PRES_LOC":"今山西武乡县故县村","TYPE_PY":"Xian","TYPE_CH":"县","LEV_RANK":"6","BEG_YR":706,"BEG_RULE":"4","END_YR":1265,"END_RULE":"4","NOTE_ID":95519,"OBJ_TYPE":"POINT","SYS_ID":95519,"GEO_SRC":"FROM_AC","COMPILER":null,"GECOMPLR":null,"CHECKER":null,"ENT_DATE":null,"BEG_CHG_TY":"更名","END_CHG_TY":"撤销"},"geometry":{"type":"Point","coordinates":[112.916267,36.826817]}},{"type":"Feature","properties":{"NAME_PY":"Shanyang Xian","NAME_CH":"鄯阳县","NAME_FT":"鄯陽縣","X_COOR":112.421524,"Y_COOR":39.308067,"PRES_LOC":"今山西朔州市区","TYPE_PY":"Xian","TYPE_CH":"县","LEV_RANK":"6","BEG_YR":605,"BEG_RULE":"4","END_YR":1368,"END_RULE":"4","NOTE_ID":95528,"OBJ_TYPE":"POINT","SYS_ID":95528,"GEO_SRC":"FROM_AC","COMPILER":null,"GECOMPLR":null,"CHECKER":null,"ENT_DATE":null,"BEG_CHG_TY":"更名","END_CHG_TY":"更名"},"geometry":{"type":"Point","coordinates":[112.421524,39.308067]}},{"type":"Feature","properties":{"NAME_PY":"Huanqing Xian","NAME_CH":"寰清县","NAME_FT":"寰清縣","X_COOR":112.609909,"Y_COOR":39.353565,"PRES_LOC":"今山西朔州市朔城区司马泊村西南约1.5千米","TYPE_PY":"Xian","TYPE_CH":"县","LEV_RANK":"6","BEG_YR":926,"BEG_RULE":"4","END_YR":997,"END_RULE":"4","NOTE_ID":95538,"OBJ_TYPE":"POINT","SYS_ID":95538,"GEO_SRC":"FROM_FD","COMPILER":null,"GECOMPLR":null,"CHECKER":null,"ENT_DATE":null,"BEG_CHG_TY":"更名","END_CHG_TY":"更名"},"geometry":{"type":"Point","coordinates":[112.609909,39.353565]}},{"type":"Feature","properties":{"NAME_PY":"Mayi Xian","NAME_CH":"马邑县","NAME_FT":"馬邑縣","X_COOR":112.609909,"Y_COOR":39.353565,"PRES_LOC":"今山西朔州市朔城区司马泊村西南约1.5千米","TYPE_PY":"Xian","TYPE_CH":"县","LEV_RANK":"6","BEG_YR":998,"BEG_RULE":"4","END_YR":1213,"END_RULE":"4","NOTE_ID":95539,"OBJ_TYPE":"POINT","SYS_ID":95539,"GEO_SRC":"FROM_FD","COMPILER":null,"GECOMPLR":null,"CHECKER":null,"ENT_DATE":null,"BEG_CHG_TY":"更名","END_CHG_TY":"更名"},"geometry":{"type":"Point","coordinates":[112.609909,39.353565]}},{"type":"Feature","properties":{"NAME_PY":"Jiaocheng Xian","NAME_CH":"交城县","NAME_FT":"交城縣","X_COOR":112.156273,"Y_COOR":37.544411,"PRES_LOC":"今山西交城县","TYPE_PY":"Xian","TYPE_CH":"县","LEV_RANK":"6","BEG_YR":691,"BEG_RULE":"4","END_YR":1911,"END_RULE":"6","NOTE_ID":95570,"OBJ_TYPE":"POINT","SYS_ID":95570,"GEO_SRC":"FROM_AC","COMPILER":null,"GECOMPLR":null,"CHECKER":null,"ENT_DATE":null,"BEG_CHG_TY":"治所迁移","END_CHG_TY":"数据下限"},"geometry":{"type":"Point","coordinates":[112.156273,37.544411]}},{"type":"Feature","properties":{"NAME_PY":"Langu Xian","NAME_CH":"岚谷县","NAME_FT":"嵐穀縣","X_COOR":111.569954,"Y_COOR":38.703972,"PRES_LOC":"今山西岢岚县城","TYPE_PY":"Xian","TYPE_CH":"县","LEV_RANK":"6","BEG_YR":724,"BEG_RULE":"4","END_YR":1069,"END_RULE":"4","NOTE_ID":95572,"OBJ_TYPE":"POINT","SYS_ID":95572,"GEO_SRC":"FROM_AC","COMPILER":null,"GECOMPLR":null,"CHECKER":null,"ENT_DATE":null,"BEG_CHG_TY":"新建","END_CHG_TY":"撤销"},"geometry":{"type":"Point","coordinates":[111.569954,38.703972]}},{"type":"Feature","properties":{"NAME_PY":"Langu Xian","NAME_CH":"岚谷县","NAME_FT":"嵐穀縣","X_COOR":111.569954,"Y_COOR":38.703972,"PRES_LOC":"今山西岢岚县城","TYPE_PY":"Xian","TYPE_CH":"县","LEV_RANK":"6","BEG_YR":1083,"BEG_RULE":"4","END_YR":1220,"END_RULE":"4","NOTE_ID":95573,"OBJ_TYPE":"POINT","SYS_ID":95573,"GEO_SRC":"FROM_AC","COMPILER":null,"GECOMPLR":null,"CHECKER":null,"ENT_DATE":null,"BEG_CHG_TY":"新建","END_CHG_TY":"撤销"},"geometry":{"type":"Point","coordinates":[111.569954,38.703972]}},{"type":"Feature","properties":{"NAME_PY":"Yifang Xian","NAME_CH":"宜芳县","NAME_FT":"宜芳縣","X_COOR":111.69323,"Y_COOR":38.390945,"PRES_LOC":"今山西岚县北岚城镇","TYPE_PY":"Xian","TYPE_CH":"县","LEV_RANK":"6","BEG_YR":621,"BEG_RULE":"4","END_YR":1260,"END_RULE":"4","NOTE_ID":0,"OBJ_TYPE":"POINT","SYS_ID":200005,"GEO_SRC":"FROM_AC","COMPILER":null,"GECOMPLR":null,"CHECKER":null,"ENT_DATE":null,"BEG_CHG_TY":"更名","END_CHG_TY":"撤销"},"geometry":{"type":"Point","coordinates":[111.69323,38.390945]}},{"type":"Feature","properties":{"NAME_PY":"Qi Xian","NAME_CH":"祁县","NAME_FT":"祁縣","X_COOR":112.3153,"Y_COOR":37.353817,"PRES_LOC":"今山西祁县县城","TYPE_PY":"Xian","TYPE_CH":"县","LEV_RANK":"6","BEG_YR":590,"BEG_RULE":"4","END_YR":1911,"END_RULE":"6","NOTE_ID":95587,"OBJ_TYPE":"POINT","SYS_ID":95587,"GEO_SRC":"FROM_AC","COMPILER":null,"GECOMPLR":null,"CHECKER":null,"ENT_DATE":null,"BEG_CHG_TY":"新建","END_CHG_TY":"数据下限"},"geometry":{"type":"Point","coordinates":[112.3153,37.353817]}},{"type":"Feature","properties":{"NAME_PY":"Long Zhou","NAME_CH":"隆州","NAME_FT":"隆州","X_COOR":112.447182,"Y_COOR":37.342403,"PRES_LOC":"今山西祁县团柏村","TYPE_PY":"Jimizhou","TYPE_CH":"羁縻州","LEV_RANK":"6","BEG_YR":975,"BEG_RULE":"4","END_YR":978,"END_RULE":"4","NOTE_ID":95588,"OBJ_TYPE":"POINT","SYS_ID":95588,"GEO_SRC":"FROM_FD","COMPILER":null,"GECOMPLR":null,"CHECKER":null,"ENT_DATE":null,"BEG_CHG_TY":"新建","END_CHG_TY":"撤销"},"geometry":{"type":"Point","coordinates":[112.447182,37.342403]}},{"type":"Feature","properties":{"NAME_PY":"Taigu Xian","NAME_CH":"太谷县","NAME_FT":"太谷縣","X_COOR":112.552765,"Y_COOR":37.425507,"PRES_LOC":"今山西太谷县城","TYPE_PY":"Xian","TYPE_CH":"县","LEV_RANK":"6","BEG_YR":598,"BEG_RULE":"4","END_YR":1911,"END_RULE":"6","NOTE_ID":95594,"OBJ_TYPE":"POINT","SYS_ID":95594,"GEO_SRC":"FROM_AC","COMPILER":null,"GECOMPLR":null,"CHECKER":null,"ENT_DATE":null,"BEG_CHG_TY":"更名","END_CHG_TY":"数据下限"},"geometry":{"type":"Point","coordinates":[112.552765,37.425507]}},{"type":"Feature","properties":{"NAME_PY":"Pingjin Xian","NAME_CH":"平晋县","NAME_FT":"平晉縣","X_COOR":112.566277,"Y_COOR":37.736397,"PRES_LOC":"今山西太原市小店区城西村一带","TYPE_PY":"Xian","TYPE_CH":"县","LEV_RANK":"6","BEG_YR":979,"BEG_RULE":"4","END_YR":1069,"END_RULE":"4","NOTE_ID":95596,"OBJ_TYPE":"POINT","SYS_ID":95596,"GEO_SRC":"FROM_FD","COMPILER":null,"GECOMPLR":null,"CHECKER":null,"ENT_DATE":null,"BEG_CHG_TY":"新建","END_CHG_TY":"撤销"},"geometry":{"type":"Point","coordinates":[112.566277,37.736397]}},{"type":"Feature","properties":{"NAME_PY":"Pingjin Xian","NAME_CH":"平晋县","NAME_FT":"平晉縣","X_COOR":112.566277,"Y_COOR":37.736397,"PRES_LOC":"今山西太原市小店区城西村一带","TYPE_PY":"Xian","TYPE_CH":"县","LEV_RANK":"6","BEG_YR":1115,"BEG_RULE":"4","END_YR":1215,"END_RULE":"4","NOTE_ID":95597,"OBJ_TYPE":"POINT","SYS_ID":95597,"GEO_SRC":"FROM_FD","COMPILER":null,"GECOMPLR":null,"CHECKER":null,"ENT_DATE":null,"BEG_CHG_TY":"新建","END_CHG_TY":"撤销"},"geometry":{"type":"Point","coordinates":[112.566277,37.736397]}},{"type":"Feature","properties":{"NAME_PY":"Wenshui Xian","NAME_CH":"文水县","NAME_FT":"文水縣","X_COOR":112.071533,"Y_COOR":37.428986,"PRES_LOC":"今山西文水县东旧城庄","TYPE_PY":"Xian","TYPE_CH":"县","LEV_RANK":"6","BEG_YR":705,"BEG_RULE":"4","END_YR":1098,"END_RULE":"4","NOTE_ID":95608,"OBJ_TYPE":"POINT","SYS_ID":95608,"GEO_SRC":"FROM_FD","COMPILER":null,"GECOMPLR":null,"CHECKER":null,"ENT_DATE":null,"BEG_CHG_TY":"更名","END_CHG_TY":"治所迁移"},"geometry":{"type":"Point","coordinates":[112.071533,37.428986]}},{"type":"Feature","properties":{"NAME_PY":"Wenshui Xian","NAME_CH":"文水县","NAME_FT":"文水縣","X_COOR":112.024185,"Y_COOR":37.436981,"PRES_LOC":"今山西文水县城","TYPE_PY":"Xian","TYPE_CH":"县","LEV_RANK":"6","BEG_YR":1099,"BEG_RULE":"4","END_YR":1911,"END_RULE":"6","NOTE_ID":95609,"OBJ_TYPE":"POINT","SYS_ID":95609,"GEO_SRC":"FROM_AC","COMPILER":null,"GECOMPLR":null,"CHECKER":null,"ENT_DATE":null,"BEG_CHG_TY":"治所迁移","END_CHG_TY":"数据下限"},"geometry":{"type":"Point","coordinates":[112.024185,37.436981]}},{"type":"Feature","properties":{"NAME_PY":"Hehe Xian","NAME_CH":"合河县","NAME_FT":"合河縣","X_COOR":110.900199,"Y_COOR":38.513404,"PRES_LOC":"今山西兴县西碧村","TYPE_PY":"Xian","TYPE_CH":"县","LEV_RANK":"6","BEG_YR":627,"BEG_RULE":"4","END_YR":1081,"END_RULE":"4","NOTE_ID":95614,"OBJ_TYPE":"POINT","SYS_ID":95614,"GEO_SRC":"FROM_FD","COMPILER":null,"GECOMPLR":null,"CHECKER":null,"ENT_DATE":null,"BEG_CHG_TY":"更名","END_CHG_TY":"更名和治所迁移"},"geometry":{"type":"Point","coordinates":[110.900199,38.513404]}},{"type":"Feature","properties":{"NAME_PY":"Hehe Xian","NAME_CH":"合河县","NAME_FT":"合河縣","X_COOR":111.123749,"Y_COOR":38.472668,"PRES_LOC":"今山西兴县","TYPE_PY":"Xian","TYPE_CH":"县","LEV_RANK":"6","BEG_YR":1127,"BEG_RULE":null,"END_YR":1231,"END_RULE":"4","NOTE_ID":95616,"OBJ_TYPE":"POINT","SYS_ID":95616,"GEO_SRC":"FROM_AC","COMPILER":null,"GECOMPLR":null,"CHECKER":null,"ENT_DATE":null,"BEG_CHG_TY":"更名","END_CHG_TY":"更名"},"geometry":{"type":"Point","coordinates":[111.123749,38.472668]}},{"type":"Feature","properties":{"NAME_PY":"Qingyuan Xian","NAME_CH":"清源县","NAME_FT":"清源縣","X_COOR":112.508995,"Y_COOR":37.557182,"PRES_LOC":"今山西清徐县城","TYPE_PY":"Xian","TYPE_CH":"县","LEV_RANK":"6","BEG_YR":618,"BEG_RULE":"4","END_YR":1762,"END_RULE":"4","NOTE_ID":95624,"OBJ_TYPE":"POINT","SYS_ID":95624,"GEO_SRC":"FROM_AC","COMPILER":null,"GECOMPLR":null,"CHECKER":null,"ENT_DATE":null,"BEG_CHG_TY":"新建","END_CHG_TY":"撤销"},"geometry":{"type":"Point","coordinates":[112.508995,37.557182]}},{"type":"Feature","properties":{"NAME_PY":"Yangqu Xian","NAME_CH":"阳曲县","NAME_FT":"陽曲縣","X_COOR":112.736015,"Y_COOR":38.08202,"PRES_LOC":"今山西阳曲县故县村","TYPE_PY":"Xian","TYPE_CH":"县","LEV_RANK":"6","BEG_YR":624,"BEG_RULE":"4","END_YR":981,"END_RULE":"4","NOTE_ID":95636,"OBJ_TYPE":"POINT","SYS_ID":95636,"GEO_SRC":"FROM_FD","COMPILER":null,"GECOMPLR":null,"CHECKER":null,"ENT_DATE":null,"BEG_CHG_TY":"更名和治所迁移","END_CHG_TY":"治所迁移"},"geometry":{"type":"Point","coordinates":[112.736015,38.08202]}},{"type":"Feature","properties":{"NAME_PY":"Yangqu Xian","NAME_CH":"阳曲县","NAME_FT":"陽曲縣","X_COOR":112.569951,"Y_COOR":37.88306,"PRES_LOC":"今山西太原市尖草坪区十里铺街","TYPE_PY":"Xian","TYPE_CH":"县","LEV_RANK":"6","BEG_YR":982,"BEG_RULE":"4","END_YR":1125,"END_RULE":"4","NOTE_ID":95637,"OBJ_TYPE":"POINT","SYS_ID":95637,"GEO_SRC":"FROM_FD","COMPILER":null,"GECOMPLR":null,"CHECKER":null,"ENT_DATE":null,"BEG_CHG_TY":"治所迁移","END_CHG_TY":"治所迁移"},"geometry":{"type":"Point","coordinates":[112.569951,37.88306]}},{"type":"Feature","properties":{"NAME_PY":"Yangqu Xian","NAME_CH":"阳曲县","NAME_FT":"陽曲縣","X_COOR":112.495064,"Y_COOR":37.863888,"PRES_LOC":"今山西太原市","TYPE_PY":"Xian","TYPE_CH":"县","LEV_RANK":"6","BEG_YR":1126,"BEG_RULE":"4","END_YR":1911,"END_RULE":"6","NOTE_ID":95638,"OBJ_TYPE":"POINT","SYS_ID":95638,"GEO_SRC":"FROM_FD","COMPILER":null,"GECOMPLR":null,"CHECKER":null,"ENT_DATE":null,"BEG_CHG_TY":"治所迁移","END_CHG_TY":"数据下限"},"geometry":{"type":"Point","coordinates":[112.495064,37.863888]}},{"type":"Feature","properties":{"NAME_PY":"Yuci Xian","NAME_CH":"榆次县","NAME_FT":"榆次縣","X_COOR":112.744682,"Y_COOR":37.678467,"PRES_LOC":"今山西榆次区旧城","TYPE_PY":"Xian","TYPE_CH":"县","LEV_RANK":"6","BEG_YR":590,"BEG_RULE":"4","END_YR":1911,"END_RULE":"6","NOTE_ID":95649,"OBJ_TYPE":"POINT","SYS_ID":95649,"GEO_SRC":"FROM_AC","COMPILER":null,"GECOMPLR":null,"CHECKER":null,"ENT_DATE":null,"BEG_CHG_TY":"更名","END_CHG_TY":"数据下限"},"geometry":{"type":"Point","coordinates":[112.744682,37.678467]}},{"type":"Feature","properties":{"NAME_PY":"Pu Xian","NAME_CH":"蒲县","NAME_FT":"蒲縣","X_COOR":111.096802,"Y_COOR":36.415764,"PRES_LOC":"今山西蒲县","TYPE_PY":"Xian","TYPE_CH":"县","LEV_RANK":"6","BEG_YR":619,"BEG_RULE":"4","END_YR":1220,"END_RULE":"4","NOTE_ID":95655,"OBJ_TYPE":"POINT","SYS_ID":95655,"GEO_SRC":"FROM_AC","COMPILER":null,"GECOMPLR":null,"CHECKER":null,"ENT_DATE":null,"BEG_CHG_TY":"治所迁移","END_CHG_TY":"更名"},"geometry":{"type":"Point","coordinates":[111.096802,36.415764]}},{"type":"Feature","properties":{"NAME_PY":"Xichuan Xian","NAME_CH":"隰川县","NAME_FT":"隰川縣","X_COOR":111.026703,"Y_COOR":36.830696,"PRES_LOC":"今山西隰县北17.5公里长寿村","TYPE_PY":"Xian","TYPE_CH":"县","LEV_RANK":"6","BEG_YR":598,"BEG_RULE":"4","END_YR":1368,"END_RULE":"4","NOTE_ID":95665,"OBJ_TYPE":"POINT","SYS_ID":95665,"GEO_SRC":"FROM_FD","COMPILER":null,"GECOMPLR":null,"CHECKER":null,"ENT_DATE":null,"BEG_CHG_TY":"更名","END_CHG_TY":"撤销"},"geometry":{"type":"Point","coordinates":[111.026703,36.830696]}},{"type":"Feature","properties":{"NAME_PY":"Yonghe Xian","NAME_CH":"永和县","NAME_FT":"永和縣","X_COOR":110.633484,"Y_COOR":36.761459,"PRES_LOC":"今山西永和县","TYPE_PY":"Xian","TYPE_CH":"县","LEV_RANK":"6","BEG_YR":619,"BEG_RULE":"4","END_YR":1911,"END_RULE":"6","NOTE_ID":95673,"OBJ_TYPE":"POINT","SYS_ID":95673,"GEO_SRC":"FROM_AC","COMPILER":null,"GECOMPLR":null,"CHECKER":null,"ENT_DATE":null,"BEG_CHG_TY":"治所迁移","END_CHG_TY":"数据下限"},"geometry":{"type":"Point","coordinates":[110.633484,36.761459]}},{"type":"Feature","properties":{"NAME_PY":"Dingxiang Xian","NAME_CH":"定襄县","NAME_FT":"定襄縣","X_COOR":112.943771,"Y_COOR":38.492691,"PRES_LOC":"今山西定襄县城","TYPE_PY":"Xian","TYPE_CH":"县","LEV_RANK":"6","BEG_YR":621,"BEG_RULE":"4","END_YR":1071,"END_RULE":"4","NOTE_ID":95677,"OBJ_TYPE":"POINT","SYS_ID":95677,"GEO_SRC":"FROM_AC","COMPILER":null,"GECOMPLR":null,"CHECKER":null,"ENT_DATE":null,"BEG_CHG_TY":"新建","END_CHG_TY":"撤销"},"geometry":{"type":"Point","coordinates":[112.943771,38.492691]}},{"type":"Feature","properties":{"NAME_PY":"Dingxiang Xian","NAME_CH":"定襄县","NAME_FT":"定襄縣","X_COOR":112.943771,"Y_COOR":38.492691,"PRES_LOC":"今山西定襄县城","TYPE_PY":"Xian","TYPE_CH":"县","LEV_RANK":"6","BEG_YR":1086,"BEG_RULE":"4","END_YR":1911,"END_RULE":"4","NOTE_ID":95678,"OBJ_TYPE":"POINT","SYS_ID":95678,"GEO_SRC":"FROM_AC","COMPILER":null,"GECOMPLR":null,"CHECKER":null,"ENT_DATE":null,"BEG_CHG_TY":"新建","END_CHG_TY":"数据下限"},"geometry":{"type":"Point","coordinates":[112.943771,38.492691]}},{"type":"Feature","properties":{"NAME_PY":"Xuanchi Xian","NAME_CH":"玄池县","NAME_FT":"玄池縣","X_COOR":112.093987,"Y_COOR":38.184303,"PRES_LOC":"今山西静乐县下马城","TYPE_PY":"Xian","TYPE_CH":"县","LEV_RANK":"6","BEG_YR":894,"BEG_RULE":"4","END_YR":1001,"END_RULE":"4","NOTE_ID":95681,"OBJ_TYPE":"POINT","SYS_ID":95681,"GEO_SRC":"FROM_FD","COMPILER":null,"GECOMPLR":null,"CHECKER":null,"ENT_DATE":null,"BEG_CHG_TY":"新建","END_CHG_TY":"撤销"},"geometry":{"type":"Point","coordinates":[112.093987,38.184303]}},{"type":"Feature","properties":{"NAME_PY":"Tianchi Xian","NAME_CH":"天池县","NAME_FT":"天池縣","X_COOR":111.845581,"Y_COOR":37.951939,"PRES_LOC":"今山西娄烦县天池店村","TYPE_PY":"Xian","TYPE_CH":"县","LEV_RANK":"6","BEG_YR":894,"BEG_RULE":"4","END_YR":1001,"END_RULE":"4","NOTE_ID":95683,"OBJ_TYPE":"POINT","SYS_ID":95683,"GEO_SRC":"FROM_AC","COMPILER":null,"GECOMPLR":null,"CHECKER":null,"ENT_DATE":null,"BEG_CHG_TY":"治所迁移","END_CHG_TY":"撤销"},"geometry":{"type":"Point","coordinates":[111.845581,37.951939]}},{"type":"Feature","properties":{"NAME_PY":"Jingle Xian","NAME_CH":"静乐县","NAME_FT":"靜樂縣","X_COOR":111.940109,"Y_COOR":38.357658,"PRES_LOC":"今山西静乐县城","TYPE_PY":"Xian","TYPE_CH":"县","LEV_RANK":"6","BEG_YR":608,"BEG_RULE":"4","END_YR":1264,"END_RULE":"4","NOTE_ID":95687,"OBJ_TYPE":"POINT","SYS_ID":95687,"GEO_SRC":"FROM_AC","COMPILER":null,"GECOMPLR":null,"CHECKER":null,"ENT_DATE":null,"BEG_CHG_TY":"更名","END_CHG_TY":"撤销"},"geometry":{"type":"Point","coordinates":[111.940109,38.357658]}},{"type":"Feature","properties":{"NAME_PY":"Loufan Xian","NAME_CH":"楼烦县","NAME_FT":"樓煩縣","X_COOR":111.844459,"Y_COOR":38.096657,"PRES_LOC":"今山西楼烦县楼烦镇汾河水库库区","TYPE_PY":"Xian","TYPE_CH":"县","LEV_RANK":"6","BEG_YR":889,"BEG_RULE":"4","END_YR":1220,"END_RULE":"4","NOTE_ID":95689,"OBJ_TYPE":"POINT","SYS_ID":95689,"GEO_SRC":"FROM_FD","COMPILER":null,"GECOMPLR":null,"CHECKER":null,"ENT_DATE":null,"BEG_CHG_TY":"新建","END_CHG_TY":"撤销"},"geometry":{"type":"Point","coordinates":[111.844459,38.096657]}},{"type":"Feature","properties":{"NAME_PY":"Xiurong Xian","NAME_CH":"秀容县","NAME_FT":"秀容縣","X_COOR":112.731201,"Y_COOR":38.398563,"PRES_LOC":"今山西忻州市区","TYPE_PY":"Xian","TYPE_CH":"县","LEV_RANK":"6","BEG_YR":598,"BEG_RULE":"4","END_YR":1264,"END_RULE":"4","NOTE_ID":95694,"OBJ_TYPE":"POINT","SYS_ID":95694,"GEO_SRC":"FROM_AC","COMPILER":null,"GECOMPLR":null,"CHECKER":null,"ENT_DATE":null,"BEG_CHG_TY":"治所迁移","END_CHG_TY":"撤销"},"geometry":{"type":"Point","coordinates":[112.731201,38.398563]}},{"type":"Feature","properties":{"NAME_PY":"Jincheng Xian","NAME_CH":"晋城县","NAME_FT":"晉城縣","X_COOR":112.839157,"Y_COOR":35.504318,"PRES_LOC":"今山西晋城市","TYPE_PY":"Xian","TYPE_CH":"县","LEV_RANK":"6","BEG_YR":923,"BEG_RULE":"4","END_YR":1367,"END_RULE":"4","NOTE_ID":95705,"OBJ_TYPE":"POINT","SYS_ID":95705,"GEO_SRC":"FROM_AC","COMPILER":null,"GECOMPLR":null,"CHECKER":null,"ENT_DATE":null,"BEG_CHG_TY":"更名","END_CHG_TY":"撤销"},"geometry":{"type":"Point","coordinates":[112.839157,35.504318]}},{"type":"Feature","properties":{"NAME_PY":"Gaoping Xian","NAME_CH":"高平县","NAME_FT":"高平縣","X_COOR":112.919586,"Y_COOR":35.792057,"PRES_LOC":"今山西高平市区","TYPE_PY":"Xian","TYPE_CH":"县","LEV_RANK":"6","BEG_YR":569,"BEG_RULE":"4","END_YR":1911,"END_RULE":"6","NOTE_ID":95712,"OBJ_TYPE":"POINT","SYS_ID":95712,"GEO_SRC":"FROM_AC","COMPILER":null,"GECOMPLR":null,"CHECKER":null,"ENT_DATE":null,"BEG_CHG_TY":"更名","END_CHG_TY":"数据下限"},"geometry":{"type":"Point","coordinates":[112.919586,35.792057]}},{"type":"Feature","properties":{"NAME_PY":"Lingchuan Xian","NAME_CH":"陵川县","NAME_FT":"陵川縣","X_COOR":113.277008,"Y_COOR":35.778126,"PRES_LOC":"今山西陵川县城","TYPE_PY":"Xian","TYPE_CH":"县","LEV_RANK":"6","BEG_YR":597,"BEG_RULE":"4","END_YR":1265,"END_RULE":"4","NOTE_ID":95714,"OBJ_TYPE":"POINT","SYS_ID":95714,"GEO_SRC":"FROM_AC","COMPILER":null,"GECOMPLR":null,"CHECKER":null,"ENT_DATE":null,"BEG_CHG_TY":"新建","END_CHG_TY":"撤销"},"geometry":{"type":"Point","coordinates":[113.277008,35.778126]}},{"type":"Feature","properties":{"NAME_PY":"Duanshi Xian","NAME_CH":"端氏县","NAME_FT":"端氏縣","X_COOR":112.519913,"Y_COOR":35.675182,"PRES_LOC":"今山西沁水县端氏镇","TYPE_PY":"Xian","TYPE_CH":"县","LEV_RANK":"6","BEG_YR":583,"BEG_RULE":"4","END_YR":1265,"END_RULE":"4","NOTE_ID":95718,"OBJ_TYPE":"POINT","SYS_ID":95718,"GEO_SRC":"FROM_AC","COMPILER":null,"GECOMPLR":null,"CHECKER":null,"ENT_DATE":null,"BEG_CHG_TY":"治所迁移","END_CHG_TY":"撤销"},"geometry":{"type":"Point","coordinates":[112.519913,35.675182]}},{"type":"Feature","properties":{"NAME_PY":"Qinshui Xian","NAME_CH":"沁水县","NAME_FT":"沁水縣","X_COOR":112.170128,"Y_COOR":35.690399,"PRES_LOC":"今山西沁水县城","TYPE_PY":"Xian","TYPE_CH":"县","LEV_RANK":"6","BEG_YR":583,"BEG_RULE":"4","END_YR":1911,"END_RULE":"6","NOTE_ID":95721,"OBJ_TYPE":"POINT","SYS_ID":95721,"GEO_SRC":"FROM_AC","COMPILER":null,"GECOMPLR":null,"CHECKER":null,"ENT_DATE":null,"BEG_CHG_TY":"更名和治所迁移","END_CHG_TY":"数据下限"},"geometry":{"type":"Point","coordinates":[112.170128,35.690399]}},{"type":"Feature","properties":{"NAME_PY":"Yangcheng Xian","NAME_CH":"阳城县","NAME_FT":"陽城縣","X_COOR":112.417999,"Y_COOR":35.490593,"PRES_LOC":"今山西阳城县城","TYPE_PY":"Xian","TYPE_CH":"县","LEV_RANK":"6","BEG_YR":923,"BEG_RULE":"4","END_YR":1222,"END_RULE":"4","NOTE_ID":95726,"OBJ_TYPE":"POINT","SYS_ID":95726,"GEO_SRC":"FROM_AC","COMPILER":null,"GECOMPLR":null,"CHECKER":null,"ENT_DATE":null,"BEG_CHG_TY":"更名","END_CHG_TY":"更名"},"geometry":{"type":"Point","coordinates":[112.417999,35.490593]}},{"type":"Feature","properties":{"NAME_PY":"Taiping Xian","NAME_CH":"太平县","NAME_FT":"太平縣","X_COOR":111.274063,"Y_COOR":35.813309,"PRES_LOC":"今山西襄汾县西南17.5公里汾城镇","TYPE_PY":"Xian","TYPE_CH":"县","LEV_RANK":"6","BEG_YR":633,"BEG_RULE":"4","END_YR":1911,"END_RULE":"6","NOTE_ID":95733,"OBJ_TYPE":"POINT","SYS_ID":95733,"GEO_SRC":"FROM_AC","COMPILER":null,"GECOMPLR":null,"CHECKER":null,"ENT_DATE":null,"BEG_CHG_TY":"治所迁移","END_CHG_TY":"数据下限"},"geometry":{"type":"Point","coordinates":[111.274063,35.813309]}},{"type":"Feature","properties":{"NAME_PY":"Qianning Xian","NAME_CH":"乾宁县","NAME_FT":"乾寧縣","X_COOR":116.82543,"Y_COOR":38.58072,"PRES_LOC":"今河北青县驻地青州镇","TYPE_PY":"Xian","TYPE_CH":"县","LEV_RANK":"6","BEG_YR":982,"BEG_RULE":null,"END_YR":1072,"END_RULE":null,"NOTE_ID":44914,"OBJ_TYPE":"POINT","SYS_ID":44914,"GEO_SRC":"FROM_FD","COMPILER":null,"GECOMPLR":null,"CHECKER":null,"ENT_DATE":null,"BEG_CHG_TY":"更名","END_CHG_TY":"撤消"},"geometry":{"type":"Point","coordinates":[116.836128,38.576907]}},{"type":"Feature","properties":{"NAME_PY":"Qianning Xian","NAME_CH":"乾宁县","NAME_FT":"乾寧縣","X_COOR":116.82543,"Y_COOR":38.58072,"PRES_LOC":"今河北青县驻地青州镇","TYPE_PY":"Xian","TYPE_CH":"县","LEV_RANK":"6","BEG_YR":1099,"BEG_RULE":null,"END_YR":1103,"END_RULE":null,"NOTE_ID":44915,"OBJ_TYPE":"POINT","SYS_ID":44915,"GEO_SRC":"FROM_FD","COMPILER":null,"GECOMPLR":null,"CHECKER":null,"ENT_DATE":null,"BEG_CHG_TY":"新建","END_CHG_TY":"撤消"},"geometry":{"type":"Point","coordinates":[116.836128,38.576907]}},{"type":"Feature","properties":{"NAME_PY":"Qianning Xian","NAME_CH":"乾宁县","NAME_FT":"乾寧縣","X_COOR":116.82543,"Y_COOR":38.58072,"PRES_LOC":"今河北青县驻地青州镇","TYPE_PY":"Xian","TYPE_CH":"县","LEV_RANK":"6","BEG_YR":1115,"BEG_RULE":null,"END_YR":1152,"END_RULE":null,"NOTE_ID":44916,"OBJ_TYPE":"POINT","SYS_ID":44916,"GEO_SRC":"FROM_FD","COMPILER":null,"GECOMPLR":null,"CHECKER":null,"ENT_DATE":null,"BEG_CHG_TY":"新建","END_CHG_TY":"更名"},"geometry":{"type":"Point","coordinates":[116.836128,38.576907]}},{"type":"Feature","properties":{"NAME_PY":"Qingchi Xian","NAME_CH":"清池县","NAME_FT":"清池縣","X_COOR":117.0241,"Y_COOR":38.20913,"PRES_LOC":"今河北沧州市东南旧州镇","TYPE_PY":"Xian","TYPE_CH":"县","LEV_RANK":"6","BEG_YR":598,"BEG_RULE":null,"END_YR":1367,"END_RULE":null,"NOTE_ID":44924,"OBJ_TYPE":"POINT","SYS_ID":44924,"GEO_SRC":"FROM_FD","COMPILER":null,"GECOMPLR":null,"CHECKER":null,"ENT_DATE":null,"BEG_CHG_TY":"更名","END_CHG_TY":"撤消"},"geometry":{"type":"Point","coordinates":[117.025986,38.204594]}},{"type":"Feature","properties":{"NAME_PY":"Raoan Xian","NAME_CH":"饶安县","NAME_FT":"饒安縣","X_COOR":117.11575,"Y_COOR":37.97175,"PRES_LOC":"今河北孟村回族自治区南新县镇","TYPE_PY":"Xian","TYPE_CH":"县","LEV_RANK":"6","BEG_YR":638,"BEG_RULE":null,"END_YR":1071,"END_RULE":null,"NOTE_ID":44925,"OBJ_TYPE":"POINT","SYS_ID":44925,"GEO_SRC":"FROM_FD","COMPILER":null,"GECOMPLR":null,"CHECKER":null,"ENT_DATE":null,"BEG_CHG_TY":"迁移治所","END_CHG_TY":"撤消"},"geometry":{"type":"Point","coordinates":[117.11575,37.97175]}},{"type":"Feature","properties":{"NAME_PY":"Linjin Xian","NAME_CH":"临津县","NAME_FT":"臨津縣","X_COOR":116.70301,"Y_COOR":37.80297,"PRES_LOC":"今河北东光县东南","TYPE_PY":"Xian","TYPE_CH":"县","LEV_RANK":"6","BEG_YR":742,"BEG_RULE":null,"END_YR":1072,"END_RULE":null,"NOTE_ID":44927,"OBJ_TYPE":"POINT","SYS_ID":44927,"GEO_SRC":"FROM_FD","COMPILER":null,"GECOMPLR":null,"CHECKER":null,"ENT_DATE":null,"BEG_CHG_TY":"更名","END_CHG_TY":"撤消"},"geometry":{"type":"Point","coordinates":[116.70301,37.80297]}},{"type":"Feature","properties":{"NAME_PY":"Yanshan Xian","NAME_CH":"盐山县","NAME_FT":"鹽山縣","X_COOR":117.31308,"Y_COOR":38.1894,"PRES_LOC":"今河北黄骅县西南旧城","TYPE_PY":"Xian","TYPE_CH":"县","LEV_RANK":"6","BEG_YR":598,"BEG_RULE":null,"END_YR":1368,"END_RULE":null,"NOTE_ID":44929,"OBJ_TYPE":"POINT","SYS_ID":44929,"GEO_SRC":"FROM_AC","COMPILER":null,"GECOMPLR":null,"CHECKER":null,"ENT_DATE":null,"BEG_CHG_TY":"更名","END_CHG_TY":"迁移治所"},"geometry":{"type":"Point","coordinates":[117.31308,38.1894]}},{"type":"Feature","properties":{"NAME_PY":"Changlu Xian","NAME_CH":"长芦县","NAME_FT":"長蘆縣","X_COOR":116.86197,"Y_COOR":38.309,"PRES_LOC":"今河北沧州市城区","TYPE_PY":"Xian","TYPE_CH":"县","LEV_RANK":"6","BEG_YR":728,"BEG_RULE":null,"END_YR":963,"END_RULE":null,"NOTE_ID":44938,"OBJ_TYPE":"POINT","SYS_ID":44938,"GEO_SRC":"FROM_FD","COMPILER":null,"GECOMPLR":null,"CHECKER":null,"ENT_DATE":null,"BEG_CHG_TY":"迁移治所","END_CHG_TY":"撤消"},"geometry":{"type":"Point","coordinates":[116.865379,38.305653]}},{"type":"Feature","properties":{"NAME_PY":"Wenan Xian","NAME_CH":"文安县","NAME_FT":"文安縣","X_COOR":116.46456,"Y_COOR":38.86481,"PRES_LOC":"今河北文安县文安镇","TYPE_PY":"Xian","TYPE_CH":"县","LEV_RANK":"6","BEG_YR":627,"BEG_RULE":null,"END_YR":1911,"END_RULE":null,"NOTE_ID":0,"OBJ_TYPE":"POINT","SYS_ID":200014,"GEO_SRC":"FROM_FD","COMPILER":"傅林祥","GECOMPLR":"孙涛","CHECKER":null,"ENT_DATE":null,"BEG_CHG_TY":"治所迁移","END_CHG_TY":"数据下限"},"geometry":{"type":"Point","coordinates":[116.46456,38.86481]}},{"type":"Feature","properties":{"NAME_PY":"Qingyuan Xian","NAME_CH":"清苑县","NAME_FT":"清苑縣","X_COOR":115.50209,"Y_COOR":38.8557,"PRES_LOC":"今河北保定市城区","TYPE_PY":"Xian","TYPE_CH":"县","LEV_RANK":"6","BEG_YR":598,"BEG_RULE":null,"END_YR":980,"END_RULE":null,"NOTE_ID":44741,"OBJ_TYPE":"POINT","SYS_ID":44741,"GEO_SRC":"FROM_FD","COMPILER":null,"GECOMPLR":null,"CHECKER":null,"ENT_DATE":null,"BEG_CHG_TY":"更名","END_CHG_TY":"更名"},"geometry":{"type":"Point","coordinates":[115.50209,38.8557]}},{"type":"Feature","properties":{"NAME_PY":"Baosai Xian","NAME_CH":"保塞县","NAME_FT":"保塞縣","X_COOR":115.50209,"Y_COOR":38.8557,"PRES_LOC":"今河北保定市区","TYPE_PY":"Xian","TYPE_CH":"县","LEV_RANK":"6","BEG_YR":981,"BEG_RULE":null,"END_YR":1175,"END_RULE":null,"NOTE_ID":44742,"OBJ_TYPE":"POINT","SYS_ID":44742,"GEO_SRC":"FROM_FD","COMPILER":null,"GECOMPLR":null,"CHECKER":null,"ENT_DATE":null,"BEG_CHG_TY":"新建","END_CHG_TY":"更名"},"geometry":{"type":"Point","coordinates":[115.50209,38.8557]}},{"type":"Feature","properties":{"NAME_PY":"Mancheng Xian","NAME_CH":"满城县","NAME_FT":"滿城縣","X_COOR":115.30381,"Y_COOR":38.95787,"PRES_LOC":"今河北满城县满城镇北","TYPE_PY":"Xian","TYPE_CH":"县","LEV_RANK":"6","BEG_YR":742,"BEG_RULE":null,"END_YR":988,"END_RULE":null,"NOTE_ID":44745,"OBJ_TYPE":"POINT","SYS_ID":44745,"GEO_SRC":"FROM_FD","COMPILER":null,"GECOMPLR":null,"CHECKER":null,"ENT_DATE":null,"BEG_CHG_TY":"更名","END_CHG_TY":"撤消"},"geometry":{"type":"Point","coordinates":[115.30381,38.95787]}},{"type":"Feature","properties":{"NAME_PY":"Jingrong Xian","NAME_CH":"静戎县","NAME_FT":"靜戎縣","X_COOR":115.65739,"Y_COOR":39.01944,"PRES_LOC":"今河北徐水县驻地安肃镇","TYPE_PY":"Xian","TYPE_CH":"县","LEV_RANK":"6","BEG_YR":981,"BEG_RULE":null,"END_YR":1003,"END_RULE":null,"NOTE_ID":44748,"OBJ_TYPE":"POINT","SYS_ID":44748,"GEO_SRC":"FROM_FD","COMPILER":null,"GECOMPLR":null,"CHECKER":null,"ENT_DATE":null,"BEG_CHG_TY":"新建","END_CHG_TY":"更名"},"geometry":{"type":"Point","coordinates":[115.650085,39.020092]}},{"type":"Feature","properties":{"NAME_PY":"Ansu Xian","NAME_CH":"安肃县","NAME_FT":"安肅縣","X_COOR":115.65739,"Y_COOR":39.01944,"PRES_LOC":"今河北徐水县驻地安肃镇","TYPE_PY":"Xian","TYPE_CH":"县","LEV_RANK":"6","BEG_YR":1004,"BEG_RULE":null,"END_YR":1274,"END_RULE":null,"NOTE_ID":44749,"OBJ_TYPE":"POINT","SYS_ID":44749,"GEO_SRC":"FROM_FD","COMPILER":null,"GECOMPLR":null,"CHECKER":null,"ENT_DATE":null,"BEG_CHG_TY":"更名","END_CHG_TY":"撤消"},"geometry":{"type":"Point","coordinates":[115.650085,39.020092]}},{"type":"Feature","properties":{"NAME_PY":"Suicheng Xian","NAME_CH":"遂城县","NAME_FT":"遂城縣","X_COOR":115.53631,"Y_COOR":39.04816,"PRES_LOC":"今河北徐水县驻地安肃镇西遂城乡","TYPE_PY":"Xian","TYPE_CH":"县","LEV_RANK":"6","BEG_YR":598,"BEG_RULE":null,"END_YR":1264,"END_RULE":null,"NOTE_ID":44751,"OBJ_TYPE":"POINT","SYS_ID":44751,"GEO_SRC":"FROM_FD","COMPILER":null,"GECOMPLR":null,"CHECKER":null,"ENT_DATE":null,"BEG_CHG_TY":"更名","END_CHG_TY":"撤消"},"geometry":{"type":"Point","coordinates":[115.534088,39.049053]}},{"type":"Feature","properties":{"NAME_PY":"Xincheng Xian","NAME_CH":"新城县","NAME_FT":"新城縣","X_COOR":115.98756,"Y_COOR":39.24595,"PRES_LOC":"今河北省新城县驻地高碑店镇东南新城镇","TYPE_PY":"Xian","TYPE_CH":"县","LEV_RANK":"6","BEG_YR":929,"BEG_RULE":null,"END_YR":1229,"END_RULE":null,"NOTE_ID":44754,"OBJ_TYPE":"POINT","SYS_ID":44754,"GEO_SRC":"FROM_FD","COMPILER":null,"GECOMPLR":null,"CHECKER":null,"ENT_DATE":null,"BEG_CHG_TY":"新建","END_CHG_TY":"撤销"},"geometry":{"type":"Point","coordinates":[115.98756,39.24595]}},{"type":"Feature","properties":{"NAME_PY":"Tang Xian","NAME_CH":"唐县","NAME_FT":"唐縣","X_COOR":114.85815,"Y_COOR":38.70744,"PRES_LOC":"今河北唐县驻地仁厚镇西南西城子村","TYPE_PY":"Xian","TYPE_CH":"县","LEV_RANK":"6","BEG_YR":947,"BEG_RULE":null,"END_YR":1129,"END_RULE":null,"NOTE_ID":44761,"OBJ_TYPE":"POINT","SYS_ID":44761,"GEO_SRC":"FROM_FD","COMPILER":null,"GECOMPLR":null,"CHECKER":null,"ENT_DATE":null,"BEG_CHG_TY":"更名","END_CHG_TY":"迁移治所"},"geometry":{"type":"Point","coordinates":[114.85815,38.70744]}},{"type":"Feature","properties":{"NAME_PY":"Wangdu Xian","NAME_CH":"望都县","NAME_FT":"望都縣","X_COOR":115.13342,"Y_COOR":38.70527,"PRES_LOC":"今河北省望都县驻地望都镇","TYPE_PY":"Xian","TYPE_CH":"县","LEV_RANK":"6","BEG_YR":621,"BEG_RULE":null,"END_YR":1128,"END_RULE":null,"NOTE_ID":44764,"OBJ_TYPE":"POINT","SYS_ID":44764,"GEO_SRC":"FROM_FD","COMPILER":null,"GECOMPLR":null,"CHECKER":null,"ENT_DATE":null,"BEG_CHG_TY":"新建","END_CHG_TY":"更名"},"geometry":{"type":"Point","coordinates":[115.13342,38.70527]}},{"type":"Feature","properties":{"NAME_PY":"Beiping Xian","NAME_CH":"北平县","NAME_FT":"北平縣","X_COOR":115.12358,"Y_COOR":38.83323,"PRES_LOC":"今河北完县驻地蒲阳镇","TYPE_PY":"Xian","TYPE_CH":"县","LEV_RANK":"6","BEG_YR":960,"BEG_RULE":null,"END_YR":1128,"END_RULE":null,"NOTE_ID":44770,"OBJ_TYPE":"POINT","SYS_ID":44770,"GEO_SRC":"FROM_FD","COMPILER":null,"GECOMPLR":null,"CHECKER":null,"ENT_DATE":null,"BEG_CHG_TY":"更名","END_CHG_TY":"更名"},"geometry":{"type":"Point","coordinates":[115.133209,38.835345]}},{"type":"Feature","properties":{"NAME_PY":"Guiyi Xian","NAME_CH":"归义县","NAME_FT":"歸義縣","X_COOR":115.98756,"Y_COOR":39.24595,"PRES_LOC":"今河北省新城县驻地高碑店镇东南新城镇","TYPE_PY":"Xian","TYPE_CH":"县","LEV_RANK":"6","BEG_YR":959,"BEG_RULE":null,"END_YR":1125,"END_RULE":null,"NOTE_ID":44776,"OBJ_TYPE":"POINT","SYS_ID":44776,"GEO_SRC":"FROM_FD","COMPILER":null,"GECOMPLR":null,"CHECKER":null,"ENT_DATE":null,"BEG_CHG_TY":"新建","END_CHG_TY":"撤消"},"geometry":{"type":"Point","coordinates":[115.98756,39.24595]}},{"type":"Feature","properties":{"NAME_PY":"Guiyi Xian","NAME_CH":"归义县","NAME_FT":"歸義縣","X_COOR":116.0927,"Y_COOR":38.97588,"PRES_LOC":"今河北雄县雄州镇","TYPE_PY":"Xian","TYPE_CH":"县","LEV_RANK":"6","BEG_YR":959,"BEG_RULE":null,"END_YR":975,"END_RULE":null,"NOTE_ID":44777,"OBJ_TYPE":"POINT","SYS_ID":44777,"GEO_SRC":"FROM_FD","COMPILER":null,"GECOMPLR":null,"CHECKER":null,"ENT_DATE":null,"BEG_CHG_TY":"新建","END_CHG_TY":"更名"},"geometry":{"type":"Point","coordinates":[116.09343,38.975533]}},{"type":"Feature","properties":{"NAME_PY":"Guixin Xian","NAME_CH":"归信县","NAME_FT":"歸信縣","X_COOR":116.0927,"Y_COOR":38.97588,"PRES_LOC":"今河北雄县驻地雄州镇","TYPE_PY":"Xian","TYPE_CH":"县","LEV_RANK":"6","BEG_YR":976,"BEG_RULE":null,"END_YR":1368,"END_RULE":null,"NOTE_ID":44778,"OBJ_TYPE":"POINT","SYS_ID":44778,"GEO_SRC":"FROM_FD","COMPILER":null,"GECOMPLR":null,"CHECKER":null,"ENT_DATE":null,"BEG_CHG_TY":"更名","END_CHG_TY":"撤销"},"geometry":{"type":"Point","coordinates":[116.09343,38.975533]}},{"type":"Feature","properties":{"NAME_PY":"Yifeng Xian","NAME_CH":"义丰县","NAME_FT":"義豐縣","X_COOR":115.31509,"Y_COOR":38.41234,"PRES_LOC":"今河北安国县祁州镇","TYPE_PY":"Xian","TYPE_CH":"县","LEV_RANK":"6","BEG_YR":705,"BEG_RULE":null,"END_YR":975,"END_RULE":null,"NOTE_ID":44781,"OBJ_TYPE":"POINT","SYS_ID":44781,"GEO_SRC":"FROM_FD","COMPILER":null,"GECOMPLR":null,"CHECKER":null,"ENT_DATE":null,"BEG_CHG_TY":"更名","END_CHG_TY":"更名"},"geometry":{"type":"Point","coordinates":[115.316826,38.411667]}},{"type":"Feature","properties":{"NAME_PY":"Puyin Xian","NAME_CH":"蒲阴县","NAME_FT":"蒲陰縣","X_COOR":115.31509,"Y_COOR":38.41234,"PRES_LOC":"今河北安国县祁州镇","TYPE_PY":"Xian","TYPE_CH":"县","LEV_RANK":"6","BEG_YR":976,"BEG_RULE":null,"END_YR":1368,"END_RULE":null,"NOTE_ID":44782,"OBJ_TYPE":"POINT","SYS_ID":44782,"GEO_SRC":"FROM_FD","COMPILER":null,"GECOMPLR":null,"CHECKER":null,"ENT_DATE":null,"BEG_CHG_TY":"更名","END_CHG_TY":"撤消"},"geometry":{"type":"Point","coordinates":[115.316826,38.411667]}},{"type":"Feature","properties":{"NAME_PY":"Gaoyang Xian","NAME_CH":"高阳县","NAME_FT":"高陽縣","X_COOR":115.9199,"Y_COOR":38.68215,"PRES_LOC":"今河北高阳县驻地高阳镇东旧城镇","TYPE_PY":"Xian","TYPE_CH":"县","LEV_RANK":"6","BEG_YR":1077,"BEG_RULE":null,"END_YR":1369,"END_RULE":null,"NOTE_ID":44787,"OBJ_TYPE":"POINT","SYS_ID":44787,"GEO_SRC":"FROM_FD","COMPILER":null,"GECOMPLR":null,"CHECKER":null,"ENT_DATE":null,"BEG_CHG_TY":"新建","END_CHG_TY":"迁移治所"},"geometry":{"type":"Point","coordinates":[115.918289,38.677597]}},{"type":"Feature","properties":{"NAME_PY":"Rongcheng Xian","NAME_CH":"容城县","NAME_FT":"容城縣","X_COOR":115.81453,"Y_COOR":39.1887,"PRES_LOC":"今河北容城县西北三十里","TYPE_PY":"Xian","TYPE_CH":"县","LEV_RANK":"6","BEG_YR":946,"BEG_RULE":null,"END_YR":1127,"END_RULE":null,"NOTE_ID":44793,"OBJ_TYPE":"POINT","SYS_ID":44793,"GEO_SRC":"FROM_FD","COMPILER":null,"GECOMPLR":null,"CHECKER":null,"ENT_DATE":null,"BEG_CHG_TY":"迁移治所","END_CHG_TY":"撤消"},"geometry":{"type":"Point","coordinates":[115.777869,39.094705]}},{"type":"Feature","properties":{"NAME_PY":"Daming Xian","NAME_CH":"大名县","NAME_FT":"大名縣","X_COOR":115.21836,"Y_COOR":36.30969,"PRES_LOC":"今河北大名县驻地东北旧府城","TYPE_PY":"Xian","TYPE_CH":"县","LEV_RANK":"6","BEG_YR":948,"BEG_RULE":null,"END_YR":1072,"END_RULE":null,"NOTE_ID":44801,"OBJ_TYPE":"POINT","SYS_ID":44801,"GEO_SRC":"FROM_FD","COMPILER":null,"GECOMPLR":null,"CHECKER":null,"ENT_DATE":null,"BEG_CHG_TY":"更名","END_CHG_TY":"撤消"},"geometry":{"type":"Point","coordinates":[115.205604,36.296364]}},{"type":"Feature","properties":{"NAME_PY":"Daming Xian","NAME_CH":"大名县","NAME_FT":"大名縣","X_COOR":115.13826,"Y_COOR":36.24564,"PRES_LOC":"今河北大名县南","TYPE_PY":"Xian","TYPE_CH":"县","LEV_RANK":"6","BEG_YR":1116,"BEG_RULE":null,"END_YR":1128,"END_RULE":null,"NOTE_ID":44802,"OBJ_TYPE":"POINT","SYS_ID":44802,"GEO_SRC":"FROM_FD","COMPILER":null,"GECOMPLR":null,"CHECKER":null,"ENT_DATE":null,"BEG_CHG_TY":"迁移治所","END_CHG_TY":"迁移治所"},"geometry":{"type":"Point","coordinates":[115.13826,36.24564]}},{"type":"Feature","properties":{"NAME_PY":"Qingfeng Xian","NAME_CH":"清丰县","NAME_FT":"清豐縣","X_COOR":115.11004,"Y_COOR":35.90877,"PRES_LOC":"今河南省清丰县驻地","TYPE_PY":"Xian","TYPE_CH":"县","LEV_RANK":"6","BEG_YR":1044,"BEG_RULE":null,"END_YR":1911,"END_RULE":null,"NOTE_ID":44811,"OBJ_TYPE":"POINT","SYS_ID":44811,"GEO_SRC":"FROM_FD","COMPILER":null,"GECOMPLR":null,"CHECKER":null,"ENT_DATE":null,"BEG_CHG_TY":"迁移治所","END_CHG_TY":"数据下限"},"geometry":{"type":"Point","coordinates":[115.11004,35.90877]}},{"type":"Feature","properties":{"NAME_PY":"Dunqiu Xian","NAME_CH":"顿丘县","NAME_FT":"頓丘縣","X_COOR":115.03487,"Y_COOR":35.68114,"PRES_LOC":"今河南濮阳县东南三里","TYPE_PY":"Xian","TYPE_CH":"县","LEV_RANK":"6","BEG_YR":938,"BEG_RULE":null,"END_YR":1072,"END_RULE":null,"NOTE_ID":44812,"OBJ_TYPE":"POINT","SYS_ID":44812,"GEO_SRC":"FROM_FD","COMPILER":null,"GECOMPLR":null,"CHECKER":null,"ENT_DATE":null,"BEG_CHG_TY":"迁移治所","END_CHG_TY":"撤消"},"geometry":{"type":"Point","coordinates":[115.029847,35.758984]}},{"type":"Feature","properties":{"NAME_PY":"Anxi Xian","NAME_CH":"安喜县","NAME_FT":"安喜縣","X_COOR":114.97504,"Y_COOR":38.52006,"PRES_LOC":"今河北定州市","TYPE_PY":"Xian","TYPE_CH":"县","LEV_RANK":"6","BEG_YR":621,"BEG_RULE":null,"END_YR":1369,"END_RULE":null,"NOTE_ID":44818,"OBJ_TYPE":"POINT","SYS_ID":44818,"GEO_SRC":"FROM_FD","COMPILER":null,"GECOMPLR":null,"CHECKER":null,"ENT_DATE":null,"BEG_CHG_TY":"更名","END_CHG_TY":"撤消"},"geometry":{"type":"Point","coordinates":[114.97504,38.52006]}},{"type":"Feature","properties":{"NAME_PY":"Quyang Xian","NAME_CH":"曲阳县","NAME_FT":"曲陽縣","X_COOR":114.6902,"Y_COOR":38.62145,"PRES_LOC":"今河北曲阳县驻地","TYPE_PY":"Xian","TYPE_CH":"县","LEV_RANK":"6","BEG_YR":820,"BEG_RULE":null,"END_YR":1215,"END_RULE":null,"NOTE_ID":44821,"OBJ_TYPE":"POINT","SYS_ID":44821,"GEO_SRC":"FROM_FD","COMPILER":null,"GECOMPLR":null,"CHECKER":null,"ENT_DATE":null,"BEG_CHG_TY":"更名","END_CHG_TY":"撤消"},"geometry":{"type":"Point","coordinates":[114.696053,38.619774]}},{"type":"Feature","properties":{"NAME_PY":"Shenze Xian","NAME_CH":"深泽县","NAME_FT":"深澤縣","X_COOR":115.19209,"Y_COOR":38.1849,"PRES_LOC":"今河北深泽县驻地深泽镇","TYPE_PY":"Xian","TYPE_CH":"县","LEV_RANK":"6","BEG_YR":586,"BEG_RULE":null,"END_YR":1072,"END_RULE":null,"NOTE_ID":44823,"OBJ_TYPE":"POINT","SYS_ID":44823,"GEO_SRC":"FROM_FD","COMPILER":null,"GECOMPLR":null,"CHECKER":null,"ENT_DATE":null,"BEG_CHG_TY":"新建","END_CHG_TY":"撤消"},"geometry":{"type":"Point","coordinates":[115.19209,38.1849]}},{"type":"Feature","properties":{"NAME_PY":"Shenze Xian","NAME_CH":"深泽县","NAME_FT":"深澤縣","X_COOR":115.19209,"Y_COOR":38.1849,"PRES_LOC":"今河北深泽县驻地深泽镇","TYPE_PY":"Xian","TYPE_CH":"县","LEV_RANK":"6","BEG_YR":1086,"BEG_RULE":null,"END_YR":1264,"END_RULE":null,"NOTE_ID":44824,"OBJ_TYPE":"POINT","SYS_ID":44824,"GEO_SRC":"FROM_FD","COMPILER":null,"GECOMPLR":null,"CHECKER":null,"ENT_DATE":null,"BEG_CHG_TY":"新建","END_CHG_TY":"撤消"},"geometry":{"type":"Point","coordinates":[115.19209,38.1849]}},{"type":"Feature","properties":{"NAME_PY":"Yongnian Xian","NAME_CH":"永年县","NAME_FT":"永年縣","X_COOR":114.72307,"Y_COOR":36.70103,"PRES_LOC":"今河北永年县驻地东南广府镇","TYPE_PY":"Xian","TYPE_CH":"县","LEV_RANK":"6","BEG_YR":601,"BEG_RULE":null,"END_YR":1911,"END_RULE":null,"NOTE_ID":44826,"OBJ_TYPE":"POINT","SYS_ID":44826,"GEO_SRC":"FROM_FD","COMPILER":null,"GECOMPLR":null,"CHECKER":null,"ENT_DATE":null,"BEG_CHG_TY":"更名","END_CHG_TY":"数据下限"},"geometry":{"type":"Point","coordinates":[114.72307,36.70103]}},{"type":"Feature","properties":{"NAME_PY":"Linming Xian","NAME_CH":"临洺县","NAME_FT":"臨洺縣","X_COOR":114.48263,"Y_COOR":36.79036,"PRES_LOC":"今河北永年县驻地临洺关镇","TYPE_PY":"Xian","TYPE_CH":"县","LEV_RANK":"6","BEG_YR":590,"BEG_RULE":null,"END_YR":1072,"END_RULE":null,"NOTE_ID":44828,"OBJ_TYPE":"POINT","SYS_ID":44828,"GEO_SRC":"FROM_FD","COMPILER":null,"GECOMPLR":null,"CHECKER":null,"ENT_DATE":null,"BEG_CHG_TY":"更名","END_CHG_TY":"撤消"},"geometry":{"type":"Point","coordinates":[114.477425,36.782894]}},{"type":"Feature","properties":{"NAME_PY":"Linming Xian","NAME_CH":"临洺县","NAME_FT":"臨洺縣","X_COOR":114.48263,"Y_COOR":36.79036,"PRES_LOC":"今河北永年县驻地临洺关镇","TYPE_PY":"Xian","TYPE_CH":"县","LEV_RANK":"6","BEG_YR":1087,"BEG_RULE":null,"END_YR":1087,"END_RULE":null,"NOTE_ID":44829,"OBJ_TYPE":"POINT","SYS_ID":44829,"GEO_SRC":"FROM_FD","COMPILER":null,"GECOMPLR":null,"CHECKER":null,"ENT_DATE":null,"BEG_CHG_TY":"新建","END_CHG_TY":"撤消"},"geometry":{"type":"Point","coordinates":[114.477425,36.782894]}},{"type":"Feature","properties":{"NAME_PY":"Quzhou Xian","NAME_CH":"曲周县","NAME_FT":"曲周縣","X_COOR":115.04548,"Y_COOR":36.87362,"PRES_LOC":"今河北曲周县东北","TYPE_PY":"Xian","TYPE_CH":"县","LEV_RANK":"6","BEG_YR":621,"BEG_RULE":null,"END_YR":1069,"END_RULE":null,"NOTE_ID":44833,"OBJ_TYPE":"POINT","SYS_ID":44833,"GEO_SRC":"FROM_FD","COMPILER":null,"GECOMPLR":null,"CHECKER":null,"ENT_DATE":null,"BEG_CHG_TY":"新建","END_CHG_TY":"撤消"},"geometry":{"type":"Point","coordinates":[115.04548,36.87362]}},{"type":"Feature","properties":{"NAME_PY":"Quzhou Xian","NAME_CH":"曲周县","NAME_FT":"曲周縣","X_COOR":114.94965,"Y_COOR":36.7793,"PRES_LOC":"今河北曲周县曲周镇","TYPE_PY":"Xian","TYPE_CH":"县","LEV_RANK":"6","BEG_YR":1087,"BEG_RULE":null,"END_YR":1087,"END_RULE":null,"NOTE_ID":44834,"OBJ_TYPE":"POINT","SYS_ID":44834,"GEO_SRC":"FROM_FD","COMPILER":null,"GECOMPLR":null,"CHECKER":null,"ENT_DATE":null,"BEG_CHG_TY":"新建","END_CHG_TY":"撤消"},"geometry":{"type":"Point","coordinates":[114.94965,36.7793]}},{"type":"Feature","properties":{"NAME_PY":"Quzhou Xian","NAME_CH":"曲周县","NAME_FT":"曲周縣","X_COOR":114.94965,"Y_COOR":36.7793,"PRES_LOC":"今河北曲周县曲周镇","TYPE_PY":"Xian","TYPE_CH":"县","LEV_RANK":"6","BEG_YR":1089,"BEG_RULE":null,"END_YR":1911,"END_RULE":null,"NOTE_ID":44835,"OBJ_TYPE":"POINT","SYS_ID":44835,"GEO_SRC":"FROM_FD","COMPILER":null,"GECOMPLR":null,"CHECKER":null,"ENT_DATE":null,"BEG_CHG_TY":"新建","END_CHG_TY":"数据下限"},"geometry":{"type":"Point","coordinates":[114.94965,36.7793]}},{"type":"Feature","properties":{"NAME_PY":"Feixiang Xian","NAME_CH":"肥乡县","NAME_FT":"肥鄉縣","X_COOR":114.8031,"Y_COOR":36.55203,"PRES_LOC":"今河北肥乡县驻地肥乡镇","TYPE_PY":"Xian","TYPE_CH":"县","LEV_RANK":"6","BEG_YR":590,"BEG_RULE":null,"END_YR":1911,"END_RULE":null,"NOTE_ID":44836,"OBJ_TYPE":"POINT","SYS_ID":44836,"GEO_SRC":"FROM_FD","COMPILER":null,"GECOMPLR":null,"CHECKER":null,"ENT_DATE":null,"BEG_CHG_TY":"新建","END_CHG_TY":"数据下限"},"geometry":{"type":"Point","coordinates":[114.8031,36.55203]}},{"type":"Feature","properties":{"NAME_PY":"Jize Xian","NAME_CH":"鸡泽县","NAME_FT":"雞澤縣","X_COOR":114.80785,"Y_COOR":36.91729,"PRES_LOC":"今河北鸡泽县驻地鸡泽镇西南城隍","TYPE_PY":"Xian","TYPE_CH":"县","LEV_RANK":"6","BEG_YR":937,"BEG_RULE":null,"END_YR":1126,"END_RULE":null,"NOTE_ID":44840,"OBJ_TYPE":"POINT","SYS_ID":44840,"GEO_SRC":"FROM_FD","COMPILER":null,"GECOMPLR":null,"CHECKER":null,"ENT_DATE":null,"BEG_CHG_TY":"迁移治所","END_CHG_TY":"迁移治所"},"geometry":{"type":"Point","coordinates":[114.80785,36.91729]}},{"type":"Feature","properties":{"NAME_PY":"Jize Xian","NAME_CH":"鸡泽县","NAME_FT":"雞澤縣","X_COOR":114.8745,"Y_COOR":36.92403,"PRES_LOC":"今河北鸡泽县驻地鸡泽镇","TYPE_PY":"Xian","TYPE_CH":"县","LEV_RANK":"6","BEG_YR":1127,"BEG_RULE":null,"END_YR":1265,"END_RULE":null,"NOTE_ID":44841,"OBJ_TYPE":"POINT","SYS_ID":44841,"GEO_SRC":"FROM_FD","COMPILER":null,"GECOMPLR":null,"CHECKER":null,"ENT_DATE":null,"BEG_CHG_TY":"迁移治所","END_CHG_TY":"撤消"},"geometry":{"type":"Point","coordinates":[114.8745,36.92403]}},{"type":"Feature","properties":{"NAME_PY":"Handan Xian","NAME_CH":"邯郸县","NAME_FT":"邯鄲縣","X_COOR":114.47204,"Y_COOR":36.59348,"PRES_LOC":"今河北邯郸市驻地","TYPE_PY":"Xian","TYPE_CH":"县","LEV_RANK":"6","BEG_YR":907,"BEG_RULE":null,"END_YR":1911,"END_RULE":null,"NOTE_ID":44847,"OBJ_TYPE":"POINT","SYS_ID":44847,"GEO_SRC":"FROM_FD","COMPILER":null,"GECOMPLR":null,"CHECKER":null,"ENT_DATE":null,"BEG_CHG_TY":"迁移治所","END_CHG_TY":"数据下限"},"geometry":{"type":"Point","coordinates":[114.516373,36.591038]}},{"type":"Feature","properties":{"NAME_PY":"Qinghe Xian","NAME_CH":"清河县","NAME_FT":"清河縣","X_COOR":115.59872,"Y_COOR":37.06781,"PRES_LOC":"今河北清河县驻地西","TYPE_PY":"Xian","TYPE_CH":"县","LEV_RANK":"6","BEG_YR":860,"BEG_RULE":null,"END_YR":993,"END_RULE":null,"NOTE_ID":44849,"OBJ_TYPE":"POINT","SYS_ID":44849,"GEO_SRC":"FROM_FD","COMPILER":null,"GECOMPLR":null,"CHECKER":null,"ENT_DATE":null,"BEG_CHG_TY":"迁移治所","END_CHG_TY":"迁移治所"},"geometry":{"type":"Point","coordinates":[115.624107,37.073032]}},{"type":"Feature","properties":{"NAME_PY":"Qinghe Xian","NAME_CH":"清河县","NAME_FT":"清河縣","X_COOR":115.62411,"Y_COOR":37.07303,"PRES_LOC":"今河北清河西驻地西城关乡","TYPE_PY":"Xian","TYPE_CH":"县","LEV_RANK":"6","BEG_YR":994,"BEG_RULE":null,"END_YR":1911,"END_RULE":null,"NOTE_ID":44850,"OBJ_TYPE":"POINT","SYS_ID":44850,"GEO_SRC":"FROM_FD","COMPILER":null,"GECOMPLR":null,"CHECKER":null,"ENT_DATE":null,"BEG_CHG_TY":"迁移治所","END_CHG_TY":"数据下限"},"geometry":{"type":"Point","coordinates":[115.62411,37.07303]}},{"type":"Feature","properties":{"NAME_PY":"Jingcheng Xian","NAME_CH":"经城县","NAME_FT":"經城縣","X_COOR":115.3238,"Y_COOR":37.16456,"PRES_LOC":"今河北威县驻地北经镇","TYPE_PY":"Xian","TYPE_CH":"县","LEV_RANK":"6","BEG_YR":586,"BEG_RULE":null,"END_YR":1072,"END_RULE":null,"NOTE_ID":44856,"OBJ_TYPE":"POINT","SYS_ID":44856,"GEO_SRC":"FROM_FD","COMPILER":null,"GECOMPLR":null,"CHECKER":null,"ENT_DATE":null,"BEG_CHG_TY":"新建","END_CHG_TY":"撤消"},"geometry":{"type":"Point","coordinates":[115.3238,37.16456]}},{"type":"Feature","properties":{"NAME_PY":"Shucheng Xian","NAME_CH":"束城县","NAME_FT":"束城縣","X_COOR":116.37783,"Y_COOR":38.53423,"PRES_LOC":"今河北河间县驻地东北束城镇","TYPE_PY":"Xian","TYPE_CH":"县","LEV_RANK":"6","BEG_YR":596,"BEG_RULE":null,"END_YR":1072,"END_RULE":null,"NOTE_ID":44859,"OBJ_TYPE":"POINT","SYS_ID":44859,"GEO_SRC":"FROM_FD","COMPILER":null,"GECOMPLR":null,"CHECKER":null,"ENT_DATE":null,"BEG_CHG_TY":"新建","END_CHG_TY":"撤消"},"geometry":{"type":"Point","coordinates":[116.37783,38.53423]}},{"type":"Feature","properties":{"NAME_PY":"Shucheng Xian","NAME_CH":"束城县","NAME_FT":"束城縣","X_COOR":116.37783,"Y_COOR":38.53423,"PRES_LOC":"今河北河间县驻地东北束城镇","TYPE_PY":"Xian","TYPE_CH":"县","LEV_RANK":"6","BEG_YR":1086,"BEG_RULE":null,"END_YR":1128,"END_RULE":null,"NOTE_ID":44860,"OBJ_TYPE":"POINT","SYS_ID":44860,"GEO_SRC":"FROM_FD","COMPILER":null,"GECOMPLR":null,"CHECKER":null,"ENT_DATE":null,"BEG_CHG_TY":"新建","END_CHG_TY":"撤消"},"geometry":{"type":"Point","coordinates":[116.37783,38.53423]}},{"type":"Feature","properties":{"NAME_PY":"Leshou Xian","NAME_CH":"乐寿县","NAME_FT":"樂壽縣","X_COOR":116.1149,"Y_COOR":38.1907,"PRES_LOC":"今河北献县驻地乐寿镇","TYPE_PY":"Xian","TYPE_CH":"县","LEV_RANK":"6","BEG_YR":601,"BEG_RULE":null,"END_YR":1367,"END_RULE":null,"NOTE_ID":44863,"OBJ_TYPE":"POINT","SYS_ID":44863,"GEO_SRC":"FROM_FD","COMPILER":null,"GECOMPLR":null,"CHECKER":null,"ENT_DATE":null,"BEG_CHG_TY":"更名","END_CHG_TY":"撤消"},"geometry":{"type":"Point","coordinates":[116.119682,38.19175]}},{"type":"Feature","properties":{"NAME_PY":"Fucheng Xian","NAME_CH":"阜城县","NAME_FT":"阜城縣","X_COOR":116.14471,"Y_COOR":37.86818,"PRES_LOC":"今河北阜城县驻地阜城镇","TYPE_PY":"Xian","TYPE_CH":"县","LEV_RANK":"6","BEG_YR":1068,"BEG_RULE":null,"END_YR":1911,"END_RULE":null,"NOTE_ID":44865,"OBJ_TYPE":"POINT","SYS_ID":44865,"GEO_SRC":"FROM_FD","COMPILER":null,"GECOMPLR":null,"CHECKER":null,"ENT_DATE":null,"BEG_CHG_TY":"新建","END_CHG_TY":"数据下限"},"geometry":{"type":"Point","coordinates":[116.14471,37.86818]}},{"type":"Feature","properties":{"NAME_PY":"Renqiu Xian","NAME_CH":"任丘县","NAME_FT":"任丘縣","X_COOR":116.09048,"Y_COOR":38.70767,"PRES_LOC":"今河北任丘市区","TYPE_PY":"Xian","TYPE_CH":"县","LEV_RANK":"6","BEG_YR":622,"BEG_RULE":null,"END_YR":1264,"END_RULE":null,"NOTE_ID":44867,"OBJ_TYPE":"POINT","SYS_ID":44867,"GEO_SRC":"FROM_FD","COMPILER":null,"GECOMPLR":null,"CHECKER":null,"ENT_DATE":null,"BEG_CHG_TY":"新建","END_CHG_TY":"撤消"},"geometry":{"type":"Point","coordinates":[116.104019,38.692112]}},{"type":"Feature","properties":{"NAME_PY":"Mo Xian","NAME_CH":"莫县","NAME_FT":"莫縣","X_COOR":116.10706,"Y_COOR":38.86037,"PRES_LOC":"今河北任丘市鄚州镇","TYPE_PY":"Xian","TYPE_CH":"县","LEV_RANK":"6","BEG_YR":725,"BEG_RULE":null,"END_YR":1072,"END_RULE":null,"NOTE_ID":44870,"OBJ_TYPE":"POINT","SYS_ID":44870,"GEO_SRC":"FROM_FD","COMPILER":null,"GECOMPLR":null,"CHECKER":null,"ENT_DATE":null,"BEG_CHG_TY":"更名","END_CHG_TY":"撤消"},"geometry":{"type":"Point","coordinates":[116.111542,38.857948]}},{"type":"Feature","properties":{"NAME_PY":"Xinhe Xian","NAME_CH":"新河县","NAME_FT":"新河縣","X_COOR":115.11769,"Y_COOR":37.50412,"PRES_LOC":"今河北新河县驻地西二十五里","TYPE_PY":"Xian","TYPE_CH":"县","LEV_RANK":"6","BEG_YR":1052,"BEG_RULE":null,"END_YR":1072,"END_RULE":null,"NOTE_ID":44881,"OBJ_TYPE":"POINT","SYS_ID":44881,"GEO_SRC":"FROM_FD","COMPILER":null,"GECOMPLR":null,"CHECKER":null,"ENT_DATE":null,"BEG_CHG_TY":"新建","END_CHG_TY":"撤消"},"geometry":{"type":"Point","coordinates":[115.11769,37.50412]}},{"type":"Feature","properties":{"NAME_PY":"Zaoqiang Xian","NAME_CH":"枣强县","NAME_FT":"棗強縣","X_COOR":115.81654,"Y_COOR":37.48814,"PRES_LOC":"今河北枣强县驻地枣强镇东前后旧县村一带","TYPE_PY":"Xian","TYPE_CH":"县","LEV_RANK":"6","BEG_YR":1077,"BEG_RULE":null,"END_YR":1725,"END_RULE":null,"NOTE_ID":0,"OBJ_TYPE":"POINT","SYS_ID":200015,"GEO_SRC":"FROM_FD","COMPILER":null,"GECOMPLR":null,"CHECKER":null,"ENT_DATE":null,"BEG_CHG_TY":"新建","END_CHG_TY":"数据下限"},"geometry":{"type":"Point","coordinates":[115.81654,37.48814]}},{"type":"Feature","properties":{"NAME_PY":"Wuyi Xian","NAME_CH":"武邑县","NAME_FT":"武邑縣","X_COOR":115.89066,"Y_COOR":37.80599,"PRES_LOC":"今河北武邑县驻地武邑镇","TYPE_PY":"Xian","TYPE_CH":"县","LEV_RANK":"6","BEG_YR":1077,"BEG_RULE":null,"END_YR":1911,"END_RULE":null,"NOTE_ID":44885,"OBJ_TYPE":"POINT","SYS_ID":44885,"GEO_SRC":"FROM_FD","COMPILER":null,"GECOMPLR":null,"CHECKER":null,"ENT_DATE":null,"BEG_CHG_TY":"新建","END_CHG_TY":"数据下限"},"geometry":{"type":"Point","coordinates":[115.89066,37.80599]}},{"type":"Feature","properties":{"NAME_PY":"Longgang Xian","NAME_CH":"龙冈县","NAME_FT":"龍岡縣","X_COOR":114.49426,"Y_COOR":37.06636,"PRES_LOC":"今河北邢台市驻地","TYPE_PY":"Xian","TYPE_CH":"县","LEV_RANK":"6","BEG_YR":589,"BEG_RULE":null,"END_YR":1119,"END_RULE":null,"NOTE_ID":44892,"OBJ_TYPE":"POINT","SYS_ID":44892,"GEO_SRC":"FROM_FD","COMPILER":null,"GECOMPLR":null,"CHECKER":null,"ENT_DATE":null,"BEG_CHG_TY":"更名","END_CHG_TY":"更名"},"geometry":{"type":"Point","coordinates":[114.49426,37.06636]}},{"type":"Feature","properties":{"NAME_PY":"Xingtai Xian","NAME_CH":"邢台县","NAME_FT":"邢臺縣","X_COOR":114.49426,"Y_COOR":37.06636,"PRES_LOC":"今河北邢台市驻地","TYPE_PY":"Xian","TYPE_CH":"县","LEV_RANK":"6","BEG_YR":1120,"BEG_RULE":null,"END_YR":1911,"END_RULE":null,"NOTE_ID":44893,"OBJ_TYPE":"POINT","SYS_ID":44893,"GEO_SRC":"FROM_FD","COMPILER":null,"GECOMPLR":null,"CHECKER":null,"ENT_DATE":null,"BEG_CHG_TY":"更名","END_CHG_TY":"数据下限"},"geometry":{"type":"Point","coordinates":[114.49426,37.06636]}},{"type":"Feature","properties":{"NAME_PY":"Shahe Xian","NAME_CH":"沙河县","NAME_FT":"沙河縣","X_COOR":114.49962,"Y_COOR":36.93683,"PRES_LOC":"今河北沙河市驻地褡裢镇北沙河城镇","TYPE_PY":"Xian","TYPE_CH":"县","LEV_RANK":"6","BEG_YR":596,"BEG_RULE":null,"END_YR":1490,"END_RULE":null,"NOTE_ID":44896,"OBJ_TYPE":"POINT","SYS_ID":44896,"GEO_SRC":"FROM_FD","COMPILER":null,"GECOMPLR":null,"CHECKER":null,"ENT_DATE":null,"BEG_CHG_TY":"新建","END_CHG_TY":"迁移治所"},"geometry":{"type":"Point","coordinates":[114.504723,36.936771]}},{"type":"Feature","properties":{"NAME_PY":"Pingxiang Xian","NAME_CH":"平乡县","NAME_FT":"平鄉縣","X_COOR":114.91842,"Y_COOR":36.98014,"PRES_LOC":"今河北平乡县驻地西南平乡村","TYPE_PY":"Xian","TYPE_CH":"县","LEV_RANK":"6","BEG_YR":501,"BEG_RULE":null,"END_YR":1072,"END_RULE":null,"NOTE_ID":44900,"OBJ_TYPE":"POINT","SYS_ID":44900,"GEO_SRC":"FROM_FD","COMPILER":null,"GECOMPLR":null,"CHECKER":null,"ENT_DATE":null,"BEG_CHG_TY":"迁移治所","END_CHG_TY":"撤消"},"geometry":{"type":"Point","coordinates":[114.912384,36.982155]}},{"type":"Feature","properties":{"NAME_PY":"Pingxiang Xian","NAME_CH":"平乡县","NAME_FT":"平鄉縣","X_COOR":114.91842,"Y_COOR":36.98014,"PRES_LOC":"今河北平乡县西南平乡村","TYPE_PY":"Xian","TYPE_CH":"县","LEV_RANK":"6","BEG_YR":1086,"BEG_RULE":null,"END_YR":1911,"END_RULE":null,"NOTE_ID":44901,"OBJ_TYPE":"POINT","SYS_ID":44901,"GEO_SRC":"FROM_FD","COMPILER":null,"GECOMPLR":null,"CHECKER":null,"ENT_DATE":null,"BEG_CHG_TY":"新建","END_CHG_TY":"数据下限"},"geometry":{"type":"Point","coordinates":[114.912384,36.982155]}},{"type":"Feature","properties":{"NAME_PY":"Julu Xian","NAME_CH":"巨鹿县","NAME_FT":"巨鹿縣","X_COOR":115.02284,"Y_COOR":37.21234,"PRES_LOC":"今河北巨鹿县驻地巨鹿镇","TYPE_PY":"Xian","TYPE_CH":"县","LEV_RANK":"6","BEG_YR":684,"BEG_RULE":null,"END_YR":1911,"END_RULE":null,"NOTE_ID":44906,"OBJ_TYPE":"POINT","SYS_ID":44906,"GEO_SRC":"FROM_FD","COMPILER":null,"GECOMPLR":null,"CHECKER":null,"ENT_DATE":null,"BEG_CHG_TY":"迁移治所","END_CHG_TY":"数据下限"},"geometry":{"type":"Point","coordinates":[115.02284,37.21234]}},{"type":"Feature","properties":{"NAME_PY":"Yaoshan Xian","NAME_CH":"尧山县","NAME_FT":"堯山縣","X_COOR":114.69869,"Y_COOR":37.33981,"PRES_LOC":"今河北隆尧县驻地西南尧山乡","TYPE_PY":"Xian","TYPE_CH":"县","LEV_RANK":"6","BEG_YR":1086,"BEG_RULE":null,"END_YR":1128,"END_RULE":null,"NOTE_ID":44907,"OBJ_TYPE":"POINT","SYS_ID":44907,"GEO_SRC":"FROM_FD","COMPILER":null,"GECOMPLR":null,"CHECKER":null,"ENT_DATE":null,"BEG_CHG_TY":"新建","END_CHG_TY":"更名"},"geometry":{"type":"Point","coordinates":[114.701324,37.338615]}},{"type":"Feature","properties":{"NAME_PY":"Ren Xian","NAME_CH":"任县","NAME_FT":"任縣","X_COOR":114.68074,"Y_COOR":37.12608,"PRES_LOC":"今河北任县驻地任城镇","TYPE_PY":"Xian","TYPE_CH":"县","LEV_RANK":"6","BEG_YR":621,"BEG_RULE":null,"END_YR":1071,"END_RULE":null,"NOTE_ID":44911,"OBJ_TYPE":"POINT","SYS_ID":44911,"GEO_SRC":"FROM_FD","COMPILER":null,"GECOMPLR":null,"CHECKER":null,"ENT_DATE":null,"BEG_CHG_TY":"新建","END_CHG_TY":"撤消"},"geometry":{"type":"Point","coordinates":[114.68074,37.12608]}},{"type":"Feature","properties":{"NAME_PY":"Ren Xian","NAME_CH":"任县","NAME_FT":"任縣","X_COOR":114.68074,"Y_COOR":37.12608,"PRES_LOC":"今河北任县驻地任城镇","TYPE_PY":"Xian","TYPE_CH":"县","LEV_RANK":"6","BEG_YR":1086,"BEG_RULE":null,"END_YR":1264,"END_RULE":null,"NOTE_ID":44912,"OBJ_TYPE":"POINT","SYS_ID":44912,"GEO_SRC":"FROM_FD","COMPILER":null,"GECOMPLR":null,"CHECKER":null,"ENT_DATE":null,"BEG_CHG_TY":"新建","END_CHG_TY":"撤消"},"geometry":{"type":"Point","coordinates":[114.68074,37.12608]}},